,city,id,latitude,longitude,name,rating,type,zipcode
0,washington dc,ae10e8c3c036333f68b0ffe836d9604f11bf9964,38.85828460000001,-76.93343459999998,Bradbury Recreation Center,4.2,restaurant,20746.0
1,washington dc,b6019296259ae1dee6c4584915798be8b1e8cd84,38.8733059,-76.9353078,Pimento Grill Restaurant,4.6,restaurant,20019.0
2,washington dc,b56f1e457c4a4e77a40675b4c953fd79bafbebbd,38.8731548,-76.93123709999998,McDonald's,3.0,restaurant,20743.0
3,washington dc,f97bb962dca29ffba8fb474a025218a696ae7e4c,38.8725915,-76.92984799999998,Americas Best Pizza and Wings,2.8,restaurant,20743.0
4,washington dc,67748a189ca5984951f646e8e35dad39190c9708,38.87263970000001,-76.9297148,SUBWAYå¨Restaurants,3.3,restaurant,20743.0
5,washington dc,d75575b39880c9fe5ffef33c135262e1e42658f7,38.8737303,-76.9307558,Tasty Carry Out,2.6,restaurant,20743.0
6,washington dc,f2f6325a240801809d4580c01e1c078ba2bbe7e6,38.8730327,-76.93456390000001,White Corner Restaurant,4.5,restaurant,20743.0
7,washington dc,316f87d100352d6258a5ffe246d00ebde8cfd7be,38.8734151,-76.9291483,Eddies Carryout Restaurant,3.7,restaurant,20743.0
8,washington dc,6110b8eb897a45501a3e632dadd1f1c1329d2cff,38.8778362,-76.9307934,Goal Post Catering,,restaurant,20019.0
9,washington dc,69b62c59d0a91b81286e65dd1e47cec21d5cda1e,38.8783283,-76.9311063,Moon Star Carry-Out,3.0,restaurant,20019.0
10,washington dc,032996b38fa6e614afbe30f6fb8afb6e1400088f,38.8784319,-76.93090699999998,Brown Sugar Community Deli,,restaurant,20019.0
11,washington dc,010601fdf446ef5a811c17f76f73c2bee0b5341f,38.8784979,-76.93090529999998,Theo's,,restaurant,20019.0
12,washington dc,dbd4d08ec00073872dada80cda2fbd1740a3bbb5,38.8892403,-76.93665250000002,SUBWAYå¨Restaurants,3.3,restaurant,20019.0
13,washington dc,2ed7471c5cdc77001a4e07d4b956750a9907c3ca,38.8895081,-76.93668149999998,America's Best Wings,2.7,restaurant,20019.0
14,washington dc,8a872e6e42daef4dbac7f7ce6c0b6a6efa172711,38.8900321,-76.93723840000001,Shrimp Boat,2.8,restaurant,20019.0
15,washington dc,14104731a2c11d7998a12e30cfd4f90b9f7b87e7,38.8904378,-76.9383247,Denny's,3.8,restaurant,20019.0
16,washington dc,e04fe6bbc646258d5d462632e65c67d4b0904947,38.8894094,-76.93667959999998,Yum's Carryout,2.9,restaurant,20019.0
17,washington dc,21fcd4fa77c61e49feab67de840a566c03313f51,38.891362,-76.935121,Dad's Crabs & Que,,restaurant,20019.0
18,washington dc,8385355959b34e233307acfae1919ab840064dc4,38.8991948,-76.93351750000002,SUBWAYå¨Restaurants,4.1,restaurant,20019.0
19,washington dc,50802e9d1288dc223338221e48ce188984eeeb85,38.9121476,-76.93361209999998,Cheng's Continental,4.0,restaurant,20743.0
20,washington dc,865831092edaccfc4821febd9872804f8278299b,38.9098103,-76.93568990000001,Mary's Place,4.1,restaurant,20019.0
21,washington dc,9538be82a854a05e4d3df7699d00cd365a26dbd9,38.9301728,-76.9311323,Burger Delite,4.0,restaurant,20781.0
22,washington dc,e84088f357925b058be4db0b82bf610cdb7668d0,38.9334467,-76.9379571,Bladensburg Waterfront Park,4.2,restaurant,20781.0
23,washington dc,a879dd156ed66c32d27afac020cf6cfdf6bbcb22,38.9322243,-76.93064559999998,Jamaica Gee's Resturant,4.4,restaurant,20784.0
24,washington dc,f47fc19edbd5036afee706e62aa43d6a33770b5d,38.939207,-76.934477,La Chiquita Restaurant 3,3.6,restaurant,20710.0
25,washington dc,ddcdbe951b73e46178aa326a97e246447873c4a7,38.9397289,-76.93373659999997,Checkers,3.3,restaurant,20710.0
26,washington dc,8a6bbc27fbe8081bbceb61fe04162aa3cd9ba744,38.9390934,-76.9346709,Caribbean Superior,4.1,restaurant,20710.0
27,washington dc,f5b3c64d50b63d03491f2ea812c261aa50ff6763,38.9402057,-76.9328454,E L Rodeo,,restaurant,20710.0
28,washington dc,2bf5346ffce8e5007c0089622d48da5445730efb,38.9390167,-76.9364828,Mango Cafe,3.9,restaurant,20710.0
29,washington dc,642b251214a983f409ff3cf11ef5edaf17dcce24,38.9390992,-76.93426640000001,Tina's Liquor & Deli,4.0,restaurant,20710.0
30,washington dc,042648994a11f618d7aaea9539f36a26b1da3bfe,38.93975820000001,-76.9359629,La Chocita Restaurant,3.8,restaurant,20710.0
31,washington dc,84601c79f3cc997b02307288c6ba230b7fa22ae8,38.9402301,-76.9333417,China City,4.2,restaurant,20710.0
32,washington dc,db54585c3d557e425ddf1f0ca34ef60c97003a36,38.9402149,-76.9329093,Rico Pollo & Steak,3.9,restaurant,20710.0
33,washington dc,09a9a287e08f49be23b18ddab9b9b96e7e64481d,38.9445792,-76.9312661,Three Brothers Italian Restaurant,4.4,restaurant,20710.0
34,washington dc,d8e7a5aa855429cba88a1ca359b0f043cbe879f6,38.9433816,-76.93254920000003,El Tapatio,3.4,restaurant,20710.0
35,washington dc,79b2bda834d7f2a98a3bb09affe7bac18fb5430a,38.9436626,-76.93219309999998,Super Chicken,3.7,restaurant,20710.0
36,washington dc,a4d64c8ba18d40ef067af78771456f535362da19,38.9434972,-76.932364,Jimmy's Carryout,4.2,restaurant,20710.0
37,washington dc,9c6065d069dafc99ea5818f68ab51616e5fb5ec5,38.9445792,-76.9312661,Beijing Palace Restaurant,4.3,restaurant,20710.0
38,washington dc,ed652c3f36c2d25fdd924291b8d97a8144bf0b75,38.944653,-76.931042,Italian Kitchen Ltd,,restaurant,20710.0
39,washington dc,99b31227cb82e34f448bd78343ddf39b9872ce09,38.949694,-76.9362407,La Fondita,4.0,restaurant,20781.0
40,washington dc,479f1b2416c348547bb10ffce5f5b949ab03ffeb,38.9464684,-76.92822240000002,Taco Rico,4.2,restaurant,20781.0
41,washington dc,3cb2e773aeb69a78988c4ee4889665ca40e18cb8,38.9550551,-76.94009870000002,Busboys and Poets,4.3,restaurant,20781.0
42,washington dc,8e0c984d44b247366dd078fbe827d84b0549830c,38.9557158,-76.93990229999999,Chipotle Mexican Grill,4.0,restaurant,20781.0
43,washington dc,755eb9af52fb7f804d8133c97701e71bed9e3114,38.9554229,-76.9393466,Spice 6 Modern Indian,4.4,restaurant,20781.0
44,washington dc,5b4b5555996fe6f9cf402115f380189f29f20ff3,38.9555583,-76.9399837,Tara Thai,3.4,restaurant,20781.0
45,washington dc,82c6368461f169ee0971dc90980199313f70669a,38.9554792,-76.93990579999998,Elevation Burger,4.1,restaurant,20781.0
46,washington dc,e5ebf18fbdaa430eda2cd2e7dc305d9730d9cc84,38.95260560000001,-76.9402679,Franklins,4.4,restaurant,20781.0
47,washington dc,fbcbaa0f5ebf6d19aed5b38f275a0c39f11c44d6,38.9540031,-76.9406584,Pike Rotisserie & Grill,4.0,restaurant,20781.0
48,washington dc,6ee1288862c98ad134ab2be659c41721f34c8ad1,38.962012,-76.93482,Dumm's Pizza & Subs,4.4,restaurant,20737.0
49,washington dc,b295a1f330a10a66426c680dcc16966488569f67,38.961298,-76.939868,Shagga Coffee & Restaurant,4.6,restaurant,20781.0
50,washington dc,5f8457110908fc451473cb47a0a3826b80b33f15,38.9570719,-76.94030490000002,Cafe Azul - Caracas de Ayer,4.6,restaurant,20781.0
51,washington dc,7a911d5634245fb99cd3609f73a8d59341080d02,38.9642276,-76.93951290000003,McDonald's,3.6,restaurant,20737.0
52,washington dc,44293390babb1e670b48a16d35d794300b70e044,38.963494,-76.93880290000001,Lesly's Grill,4.1,restaurant,20737.0
53,washington dc,ce4609ea98f2c488387e41a25399b1cb41caacbd,38.9617352,-76.93978759999997,El Comalito,3.9,restaurant,20737.0
54,washington dc,63d39b517b42a5577c227e9db65d2add7d1234ec,38.9617514,-76.9398357,La Chiquita Restaurant,,restaurant,20737.0
55,washington dc,e233c41eb241f058c9d4817661ed2d9427767904,38.979061,-76.938288,Applebee's,2.9,restaurant,20740.0
56,washington dc,53751e72f32ae9653d6d0f98863ace7fa37a6b62,38.9799193,-76.9376083,Kiyoko Express,3.3,restaurant,20740.0
57,washington dc,17049e2c228fc36887983f10088e7ebaef067fb7,38.977865,-76.937483,Paisano's Pizza,3.6,restaurant,20740.0
58,washington dc,d60e191b6553e8157ba0cfadc3204373a79a2351,38.9767316,-76.93840420000002,Iris Center,,restaurant,20782.0
59,washington dc,24cf92a15a4359d5c61b87adbac5f27405c7d882,38.9799193,-76.9376083,Simply Delicious,,restaurant,20740.0
60,washington dc,749dd5f363b1f7a37957fd9be46a20f147045da9,38.979923,-76.937709,Northwest Chinese Food,3.7,restaurant,20740.0
61,washington dc,b1b12789186e2bbf3174a92253470526dcc210d8,38.98087,-76.93895400000002,Jason's Deli,4.3,restaurant,20740.0
62,washington dc,80b190ee60c5eb2a0f390961f1fb2fe3b4799360,38.98066370000001,-76.9375734,Cornerstone Grill & Loft,4.1,restaurant,20740.0
63,washington dc,000873d0c3bd722ee6654b5d2bc99079a4bb6430,38.9801478,-76.9390714,Noodles and Company,4.0,restaurant,20740.0
64,washington dc,334179f004eb64677e15103d8df2cce092dc31c0,38.9805915,-76.93712509999997,The Original Ledo Restaurant,3.9,restaurant,20740.0
65,washington dc,1a694480c38b5946868ff246d628cd7ba3d78515,38.980357,-76.938975,Chipotle Mexican Grill,4.0,restaurant,20740.0
66,washington dc,64d53ccd050cb48a242de54c7cfbb3ff27a89526,38.981704,-76.938142,Potbelly Sandwich Shop,3.8,restaurant,20740.0
67,washington dc,dcf2758da383f620f7bd6ae4ff58f68577f18982,38.9799584,-76.9386978,Cold Stone Creamery,4.1,restaurant,20740.0
68,washington dc,d598b00b0763ea7ff0585bbcf44cb3a06881cd9a,38.981514,-76.937562,Cluck-U Chicken,3.5,restaurant,20740.0
69,washington dc,180b7241e3f04999ff25b7ec499068dfbdd62c4a,38.9810034,-76.9376429,Smoothie King,4.0,restaurant,20740.0
70,washington dc,32dc0073a5cfbf48deae0b5dc55c422a933a1f56,38.9804811,-76.9375566,RJ Bentley's Restaurant,3.1,restaurant,20740.0
71,washington dc,29d6fd3f75f2e995e6aa441f97285ca5d5f15fd4,38.979979,-76.937708,Pho Thom,4.3,restaurant,20740.0
72,washington dc,09fc83b50666a0753e7501d4006f85ce7602c699,38.981922,-76.9375365,Bagel Place of College Park,4.4,restaurant,20740.0
73,washington dc,3861e4947534aa2cc688abd6f6dc48c0fc146f8b,38.9800651,-76.9376129,Ivy Noodles,4.4,restaurant,20740.0
74,washington dc,2b238e7905bab1fc429b4f8250bc64d38faeafaf,38.981839,-76.93735600000002,Wasabi Bistro,3.4,restaurant,20740.0
75,washington dc,577511e391679c8e31d2fbdd28ee576bc19d0316,38.9815956,-76.9387777,Krazi Kebob,4.3,restaurant,20740.0
76,washington dc,5a768f82068ab4c8262016ec95d5a7ac99a92540,38.981603,-76.93865799999998,Marathon Deli,4.8,restaurant,20740.0
77,washington dc,b6c74768853428c4147dbdbef01b7d9692eddd02,38.98119310000001,-76.9376191,SUBWAYå¨Restaurants,3.5,restaurant,20740.0
78,washington dc,c74c836c196c6167f0a203a48e64a931144f9d5d,38.9816844,-76.9375517,Five Guys,4.3,restaurant,20740.0
79,washington dc,f1e9237b467962ea50ff79a10a3e250e37c8f403,38.98187,-76.937058,Aroy Thai Restaurant,4.1,restaurant,20740.0
80,washington dc,f02d8f31bb1d7a662a66d53d98cca96f898a225f,38.9815076,-76.93744029999998,Clucksters,5.0,restaurant,20740.0
81,washington dc,c0fbb0c8bc41a1426b6d6ca594540880684ba1b9,38.9817583,-76.938321,Pizza Kingdom,3.1,restaurant,20740.0
82,washington dc,cd03da572995d5404e468e58fb2c30843f65ae44,38.9811323,-76.9376008,Shanghai Cafe,3.5,restaurant,20740.0
83,washington dc,857b8a7adb1765f467e26cd42bb8f372866ec992,38.981844,-76.937561,Blaze Pizza,4.7,restaurant,20740.0
84,washington dc,88aef31be3ebcdf63471a691d8bc9793b7e6eaf5,38.9809867,-76.938102,Nando's PERi-PERi,4.1,restaurant,20740.0
85,washington dc,281be87081d02bf9ee904d70a7daa8ad44ab72bb,38.98104220000001,-76.9383743,Terrapin's Turf,3.7,restaurant,20740.0
86,washington dc,5f6544d020fd127a39f7f0fc19973512116c9f3c,38.9799755,-76.9388198,Panda Express,3.8,restaurant,20740.0
87,washington dc,ab979c91888e1ad6493ebaf69bc211642b24247e,38.9811611,-76.93815140000002,Fat PeteÛªs Barbeque,3.1,restaurant,20740.0
88,washington dc,02165d956cbfa1824b8a71e2282626e42bd66023,38.98120770000001,-76.9388135,Lotsa Stone Fired Pizza,1.0,restaurant,20740.0
89,washington dc,903aff0e38fcf514af3ca83f015da1f620048c0e,38.98159329999999,-76.9387728,Bread N Greens,4.6,restaurant,20740.0
90,washington dc,5357cff95bb8956ec82d783aad87e144f079f313,38.8660844,-76.94317559999998,Johnny Boy Carryout,4.2,restaurant,20743.0
91,washington dc,4f241d99448c95f40510936858f72f131be24103,38.866113,-76.94306999999998,New China Carryout,3.8,restaurant,20743.0
92,washington dc,1d4eb11e425e7cd2396f573e6c8d25ef572dda3a,38.8930988,-76.9423343,Mike's Market & Restaurant,4.0,restaurant,20019.0
93,washington dc,2c7bdd47dcb81527251f8ed3029c2007b2200d68,38.901888,-76.9416238,Wendy's,2.8,restaurant,20019.0
94,washington dc,613523b7f0b8fc8e0b3f9396d40262b7d56b6b21,38.9012074,-76.94159429999998,McDonald's,3.2,restaurant,20019.0
95,washington dc,42cdaba46aa73a88cc121a8086835c69fd33ce04,38.8972497,-76.9473437,Eclectic Cafe,2.8,restaurant,20019.0
96,washington dc,ecdf483e17e6636f309be88a318687cf5f393d01,38.936276,-76.946822,McDonald's,3.7,restaurant,20722.0
97,washington dc,e9179db2a76271747a3f0bb9726394752705110b,38.937232,-76.944801,Ernie's Original Crab House,4.7,restaurant,20722.0
98,washington dc,1ed1fac5baba34bbcb968f91650dda75bef33513,38.9360678,-76.9474196,KFC,3.1,restaurant,20722.0
99,washington dc,719a2371f6d34f66406609ab7d35d1831e7ece8b,38.9360591,-76.947408,Taco Bell,2.8,restaurant,20722.0
100,washington dc,3d06227860eaefb24fa8893421aca7aef21d9659,38.937548,-76.944453,Morazan Restaurant,2.9,restaurant,20722.0
101,washington dc,ab00213d96d0c549fc73c7679dff7f718cc5545f,38.9375872,-76.9456265,pollo a la brasa morazan restaurant,3.7,restaurant,20722.0
102,washington dc,1451b96cca80d15993a29781dc79a1d1c50b8ac3,38.9522129,-76.9408204,Chez Dior,4.7,restaurant,20781.0
103,washington dc,467f51e32912044a73882a1f391712ea90926502,38.9485352,-76.94383570000002,Pizzeria Paradiso,4.6,restaurant,20781.0
104,washington dc,17d9ac8d199135693dd2ab2f983f7ca4b34f8ed0,38.9562385,-76.94013120000002,SUBWAYå¨Restaurants,4.5,restaurant,20781.0
105,washington dc,7193eaecdbe64986727d23b2e7d24d46d11cd033,38.9832165,-76.94368709999998,University of Maryland South Campus Dining Hall,3.3,restaurant,20740.0
106,washington dc,9ca14f15ddd95200a50aff85e8a8ba65534b5a98,38.8651256,-76.9514067,Danny's Sub Shop & Chinese Food,3.2,restaurant,20020.0
107,washington dc,9fa2cbbb2f9b84274b9979e7ec8f4f660faf988b,38.8945475,-76.95001740000002,SUBWAYå¨Restaurants,2.2,restaurant,20019.0
108,washington dc,4b0ae46e2b95bcd5978e2b04cc3ff9e691c6f29f,38.893414,-76.94987900000002,McDonald's,3.1,restaurant,20019.0
109,washington dc,05f86d86fb0a83c883203f0ed652fbece765d43c,38.8960682,-76.9476158,Sharks Fish & Chicken,4.5,restaurant,20019.0
110,washington dc,8c704308e2bc1d9b571b246440306343737427ec,38.89587589999999,-76.94897259999998,Sala Thai Restaurant,4.1,restaurant,20019.0
111,washington dc,0bdd7ac181951417982a136c9b4d5bfc69c40584,38.8959036,-76.94888590000002,Popeyes Louisiana Kitchen,3.5,restaurant,20019.0
112,washington dc,367abee95c15a8da84ae9c22362e9fa5ad3830d1,38.8970138,-76.94773520000003,Deanwood CafÌ©,,restaurant,20019.0
113,washington dc,37bea7509c9a1a55c2ebb26aef278f7e107a9e6e,38.894855,-76.9491174,Yum's Carryout,3.1,restaurant,20019.0
114,washington dc,d9d67b17b296612554bcf943e33ce562187a46e8,38.892942,-76.94926140000003,"chef julian's Food Service Group, LLC",5.0,restaurant,20019.0
115,washington dc,f968973c841639a2cf1ca643eb1350301bc3f758,38.8930549,-76.95042609999999,Minnesota Seafood,4.2,restaurant,20019.0
116,washington dc,62cbcbd5255aa6944918f934e63b33938b3e109b,38.8954565,-76.9486342,Yellow House,3.5,restaurant,20019.0
117,washington dc,23bb8d7fb9fe5f4403af0ba978720d4bfc21b90b,38.8961425,-76.9474946,New Garden Carry-Out,4.0,restaurant,20019.0
118,washington dc,7135f47de4ac30423a422a807a07844d2cb2e177,38.89113,-76.95246,Potomac Seafood Grilled Market,3.7,restaurant,20019.0
119,washington dc,b687dc4d4f1f116755fc1d60919843293a71924f,38.9203255,-76.95037020000002,Costco Food Court,3.8,restaurant,20018.0
120,washington dc,d498937f7694dde9a183de4d3d23327a9eeb65a0,38.920453,-76.9527181,Panda Express,4.2,restaurant,20018.0
121,washington dc,c4cdcf94824f38529fd9231055899f7e6787305a,38.9206001,-76.9526685,Jersey Mike's Subs,,restaurant,20018.0
122,washington dc,43b81154e1498fe6b7811475d82608f5d34a0914,38.9340848,-76.9518813,IHOP,3.4,restaurant,20722.0
123,washington dc,abd71e81be1bdc1869a921d1c3109acb2f83454a,38.9342695,-76.9507342,SUBWAYå¨Restaurants,2.4,restaurant,20722.0
124,washington dc,a6f34f3931851cd30ece8e2bf2f5329b98a6d06b,38.9354722,-76.9483341,Burger King,3.8,restaurant,20722.0
125,washington dc,2689b2f5b0e322a7c6820800c9182025304ce5b7,38.9342521,-76.95080440000002,China Express,3.8,restaurant,20722.0
126,washington dc,ae9051a18e1c1b3e58da9b7ff4edb6c55a9a7054,38.9342238,-76.95085870000003,America's Best Wings,3.5,restaurant,20722.0
127,washington dc,bc4dc5b94f01faeb80936835122d49053f627564,38.931483,-76.950333,COLMAR MANOR Community Ctr,,restaurant,20722.0
128,washington dc,09cd3a83a63abbb9a29ce530b51a79c28799b88f,38.9342588,-76.9508594,American Wing,,restaurant,20722.0
129,washington dc,2de6025f2280405a76ac3ee44c49b39485858c89,38.936298,-76.949616,Maricenterchildrenmaternal,,restaurant,20722.0
130,washington dc,462f55114c498c478e4bd17be8648390a0dd96ee,38.94099129999999,-76.95334059999998,Ribs N Things,4.1,restaurant,20722.0
131,washington dc,df85db0c92d5ed4934ea6dd40cfa8c29a018375b,38.9413949,-76.95297790000002,Lasmargaritasmexicanrestaurant,,restaurant,20722.0
132,washington dc,adde52f25501d9f4bd6d16df68b6106071476f77,38.941402,-76.9529868,Margaritas Mexican Restaurant,3.8,restaurant,20722.0
133,washington dc,8dab8bf666f4bee60050bfbe767f25f5ea06df99,38.9599612,-76.9499125,Golden China Restaurant,3.1,restaurant,20782.0
134,washington dc,1d2e91157e5e53abc9fc644ae85d075d0f20bb77,38.968468,-76.952048,Carolina Kitchen Bar & Grill,4.0,restaurant,20782.0
135,washington dc,1403e14667fb1aa8e7349cd103b1f83af9cf8e50,38.9675591,-76.95244790000002,QDOBA Mexican Eats,4.1,restaurant,20782.0
136,washington dc,6957ae1566d4b9a2e158fbf54ad29e469166828d,38.967633,-76.951949,Five Guys,4.3,restaurant,20782.0
137,washington dc,e2a7ea5b0aa3b6ee0ee9466a87f77d48adcddd04,38.9655731,-76.95353670000002,La Chiquita Restaurant IV,3.7,restaurant,20782.0
138,washington dc,605e6c5384afab773c1e557a67ababa798e28432,38.9655954,-76.9534587,Golden House Restaurant,3.4,restaurant,20782.0
139,washington dc,c3a1141d351d349792fb56a3646d4a50186b6dcf,38.967692,-76.95238,Sushiredo & Teriyaki,4.8,restaurant,20782.0
140,washington dc,da2fcf8098c20a06d1cb3c4bb639d1152f42a87d,38.967769,-76.951362,Metro II Cafeteria,,restaurant,20782.0
141,washington dc,8e655d9a4be0d76796e47bf28fe9ddcfff82a1ec,38.9669725,-76.952028,Pollo Campero,3.1,restaurant,20782.0
142,washington dc,9012a96aaf443c8cd377af476756c14351fbf108,38.9656165,-76.95339440000002,Wingstop,3.5,restaurant,20782.0
143,washington dc,6cc83a84fe44eb7073ff244a7d8c5ee2e0d0a897,38.9687259,-76.9528713,Old Dominion BrewHouse,4.1,restaurant,20782.0
144,washington dc,e3f88ce8580ea229e7b204079774325989d7237e,38.9686991,-76.95199179999999,Bonchon Hyattsville,3.8,restaurant,20782.0
145,washington dc,1d1fde9509996fa2bac3467883b1dc9195e56053,38.968601,-76.952106,TropQ Creamery and Cafe,4.9,restaurant,20782.0
146,washington dc,120592b46acedd6d1996433758ebc31039ce12b8,38.967849,-76.9536983,Good Morning Cafe Deli,,restaurant,20782.0
147,washington dc,bbaa96a551f47597f78b820d16e7e213d12dba34,38.9845619,-76.9492916,SUBWAYå¨ Restaurants,3.0,restaurant,20782.0
148,washington dc,ba3f38f8b2282e716fb7b24bf15caa88994e8681,38.8699454,-76.9601057,SUBWAYå¨Restaurants,2.3,restaurant,20020.0
149,washington dc,5e8d4dcbf8587b975d393d30977def2bf9e36d3d,38.8697565,-76.9596906,Star Pizza Restaurant-Carryout,4.3,restaurant,20020.0
150,washington dc,fff2d16773c1c2d912aa036ef54e72bb00f917aa,38.9301273,-76.9589331,Popeyes Louisiana Kitchen,4.0,restaurant,20018.0
151,washington dc,e34c6e3322a61a8ee59130ce64cb03858f50d5d8,38.9385892,-76.9606656,Sweet & Natural,4.6,restaurant,20712.0
152,washington dc,f26738ef2c6cdf2085de910906fc214f37819680,38.9367698,-76.9606207,Bird Kitchen + Cocktails,4.3,restaurant,20712.0
153,washington dc,56d4fe3c73361a110455ac6daf71950bcd98e177,38.938193,-76.956379,Naija Fish Place,3.8,restaurant,20722.0
154,washington dc,8508ae9183d91a1f660e5f70e6990ca2194affb4,38.9380446,-76.9608638,Francis Restaurant & Carry Out,5.0,restaurant,20712.0
155,washington dc,804e55038e258063b5aa8f740baa262a0a17ce7c,38.9527331,-76.9545615,Sammy's Carry Out,4.6,restaurant,20781.0
156,washington dc,f8c8a0bc55ff91f3f9c3b3823c94c1417c1322ab,38.9509284,-76.95700579999998,Cuisine Beauties LLC,,restaurant,20782.0
157,washington dc,be2c043b2a6fd22a8ada5412c39b0750b3522e20,38.9680424,-76.9578177,Subway,3.8,restaurant,20782.0
158,washington dc,262da5412ed8a671e165e4782b42a5dd3ce37f51,38.967252,-76.95853199999998,Olive Garden Italian Restaurant,3.8,restaurant,20782.0
159,washington dc,973dcd5d3b70b1c534f03aeb2c845ff8bc9e44eb,38.9686274,-76.9575033,Sbarro,4.0,restaurant,20782.0
160,washington dc,48133a934192185031b0d0179eb28876263a62ee,38.966483,-76.957986,Jerry's Subs & Pizza,4.1,restaurant,20782.0
161,washington dc,6007f9e5a9d0b4c647eda1f52d857d6a8ed64cc6,38.9672223,-76.95701559999998,Outback Steakhouse,3.5,restaurant,20782.0
162,washington dc,04b4301fcb7a83db9484b759933c1b7f8c0a5e27,38.967919,-76.957249,Popeyes Louisiana Kitchen,4.9,restaurant,20782.0
163,washington dc,94dd435a4d936c49002e287bd537a4bee9d7e6ad,38.9680037,-76.9573946,California Grill,,restaurant,20782.0
164,washington dc,76d03d3fb32f8265882e1e98fbc832c01f94552e,38.9681083,-76.9575168,McDonald's,3.8,restaurant,20782.0
165,washington dc,2406b89729779e243169d87cd14814a4d5f2e406,38.9679616,-76.9577735,Sarku Japan,2.3,restaurant,20782.0
166,washington dc,782a12069664e420d3bb97ed23cb0761537712ae,38.9681308,-76.95880109999997,Golden Krust Caribben Bakery & Grill,2.5,restaurant,20782.0
167,washington dc,c318f14634b3a0fdc047d90cdcb28805195c8686,38.9677968,-76.95762049999998,Janjer Enterprises,,restaurant,20782.0
168,washington dc,d143c1e77e55da5ec9b01404ffd3c1fb7b7c33f4,38.9686274,-76.9575032,Mandarin Express,3.5,restaurant,20782.0
169,washington dc,1b63265fbae5d02f79da7b47bfdfe0038e131fd2,38.9686274,-76.9575032,Manchu Wok,,restaurant,20782.0
170,washington dc,cdf50ddd1199847308edf0416dd40ad24b3f2cde,38.9685563,-76.9574931,Kingston Arbor,4.2,restaurant,20782.0
171,washington dc,76180f28dcfcef4660890effcfecfbb3df251d15,38.96767020000001,-76.9575395,Ruby Thai Kitchen,1.0,restaurant,20782.0
172,washington dc,cf06fbe31e967663bf937df4b62e9344dd704b39,38.968665,-76.955069,Pizza Hut Express,5.0,restaurant,20782.0
173,washington dc,0319b87061ca23fd404327ec9e7e5f35f0f74564,38.9678365,-76.9576673,A and D Buffalo's,4.0,restaurant,20782.0
174,washington dc,22c40249f0936e1aeca7002db588602100951a30,38.968123,-76.9574489,Bourban Street Grill,,restaurant,20782.0
175,washington dc,69d37e94fa7601caffb85de7b421c59122bfbfd1,38.96850300000001,-76.9573719,Kingston Restaurant,,restaurant,20782.0
176,washington dc,dde078d4debb63100f07a871c176ecf6cf2b0ef7,38.9861135,-76.9550223,The Common,3.6,restaurant,20742.0
177,washington dc,3aeb4b994b4bfa3fa96126a5386a9b69ec30af28,38.860115500000006,-76.9652888,SUBWAYå¨ Restaurants,3.0,restaurant,20020.0
178,washington dc,10a0a2b0ded38c42dc3a352c5b11b7c910486365,38.8601302,-76.9652322,America's Best Wings,4.1,restaurant,20020.0
179,washington dc,5fd282a7126d5dbeeaa7f0b5fa6288c27a6b23f9,38.8712922,-76.96752159999998,Turning Natural DC 14th & H Street NE Washington D.C.,,restaurant,20020.0
180,washington dc,5435bc2e897abe53ef324c29b3744b9450e3d698,38.8762126,-76.96581409999997,Moruss Seafood & Crab House,3.9,restaurant,20019.0
181,washington dc,703d78d2a2d6ff23e2d13962eaf215aa6c4debe8,38.927651,-76.962688,Fish & Chicken House,4.8,restaurant,20018.0
182,washington dc,da81cf9df9385f3cca0a5fcda6132d0df859a85e,38.9354641,-76.96229840000002,Aladdin Sizzler,4.2,restaurant,20712.0
183,washington dc,4358e5e46dea7ff8452a033767f2f19db33ed414,38.9347618,-76.96387390000002,Chen Sunny's Carry Out,4.1,restaurant,20018.0
184,washington dc,7284ecc395dc29b4b845884e97f7113afd7a6486,38.9355348,-76.96207690000001,Mediterranean Cafe,4.2,restaurant,20712.0
185,washington dc,0153d9904d0e63bd0b4698e94791c2f3ac2f7dad,38.9354402,-76.96249209999998,Potomac Fish House,4.3,restaurant,20712.0
186,washington dc,e11e4886caf4da8213baf7d2eda1526a06405718,38.938355,-76.960971,ZZ Pizza & Kabob,4.1,restaurant,20712.0
187,washington dc,37cbbfaaa222b56dd1e673b0710851288eb16332,38.9508011,-76.9665339,Joe's Restaurant,4.2,restaurant,20712.0
188,washington dc,5f5f21ac5e2534bab9409a821fd2087239d72780,38.956317,-76.96328620000001,Acapulco Spirit Restaurant,3.8,restaurant,20782.0
189,washington dc,9459f25bf2899890f60b3a1cd7704c234d9fd5b9,38.95186629999999,-76.9662846,Little Caesars Pizza,3.7,restaurant,20712.0
190,washington dc,1fe3a06b99c6ad657296dfe561d1ff9fe83eec91,38.9558939,-76.9658513,KFC,3.3,restaurant,20782.0
191,washington dc,2136e7db62e6c91996d57a3013a5c4f485498097,38.9555337,-76.9651535,Lee's,3.0,restaurant,20782.0
192,washington dc,20d96e2d4c4c2ba3d69eb21fcc213b689eafb1d1,38.956223,-76.96453699999998,Trinity Grill & Bar,4.5,restaurant,20782.0
193,washington dc,74bcd1b956178488ebf5841b09d7da47bd457f91,38.9550752,-76.96550529999998,Kitchen Near You,3.3,restaurant,20782.0
194,washington dc,e3abd97b8774dc4e2984c0907e8ca395d9c14dad,38.95615520000001,-76.96219920000001,New Century Carry Out & Rest,4.7,restaurant,20782.0
195,washington dc,c8d14584625fc18c69d4347e721801500dc118de,38.9741263,-76.9611702,Holly Garden,,restaurant,20782.0
196,washington dc,255fa75b70454094ed38fae0ce5d0aad6ca4e1f1,38.98163,-76.966048,Marmite BENIN,,restaurant,20783.0
197,washington dc,234dfc3295e5c134935733685db5d6d0e7f54220,38.8599781,-76.96889509999998,McDonald's,3.0,restaurant,20020.0
198,washington dc,0d783e1ac6fec4a1b1bd97204e0c07d0749cde65,38.8729739,-76.9711495,Mario's House Pizza,4.5,restaurant,20020.0
199,washington dc,ee6271eac7d8cd6a9991005ff5f3b3e8a8a604e6,38.8729173,-76.9704719,Wah Sing Restaurant,4.0,restaurant,20020.0
200,washington dc,485079f9444efedaaa01e35096a2b50da717a749,38.8731286,-76.97112740000001,Chicken To Go,4.2,restaurant,20020.0
201,washington dc,263a9312d638f8bbce8268b0fcedf2bf7a723c7a,38.87307970000001,-76.9711798,D C Carryout Chicken,,restaurant,20020.0
202,washington dc,5ab1f4245cb893cb5c43e177aab4cdf09134b5b3,38.8716526,-76.9738087,Lee's Brunch,3.9,restaurant,20020.0
203,washington dc,542397962835529e59dc21982ddac1cddac6abbd,38.897941,-76.972718,Hip Hop Fish and Chicken,3.9,restaurant,20002.0
204,washington dc,4e938bb974d21457b913a8bf1c85d90168ae8b6e,38.8977799,-76.97142590000001,Sporty's Deli,4.7,restaurant,20002.0
205,washington dc,0c694819f367a4c3660f389becd6dbfdd631ba9f,38.89787800000001,-76.97183100000002,Kerry's Carry-Out,3.4,restaurant,20002.0
206,washington dc,44befee139b344281374bfeac17e428e374764b8,38.9164475,-76.9725495,New China Restaurant,,restaurant,20002.0
207,washington dc,a996ce92b3ca094ba440a6ed1124efaa00e60e16,38.9179902,-76.9708049,Panda Gourmet,4.0,restaurant,20002.0
208,washington dc,91430f56a7b0db66cb986307675b3ce56a71a622,38.9177104,-76.9718738,Checkers,3.4,restaurant,20002.0
209,washington dc,081901edb1938211d299b58e7c8eae1f4d527c86,38.9179191,-76.9716266,Hogs on the Hill III,4.1,restaurant,20002.0
210,washington dc,df4b51b0e4ae73c1b301680e36d4162de2022cbb,38.9168805,-76.9731728,KFC,2.4,restaurant,20002.0
211,washington dc,5b04ed3e30b1f95c068a4b439ad8adf5f63884bd,38.9169002,-76.9731917,Taco Bell,2.0,restaurant,20002.0
212,washington dc,a7084e76d26b9464d7dd74275bc177e84a81009b,38.9177315,-76.9734328,McDonald's,3.6,restaurant,20002.0
213,washington dc,a435ff8448f406ba3029b4abc4f0bfd322292624,38.9202527,-76.9697749,Mason Dixie Biscuit Company,3.9,restaurant,20018.0
214,washington dc,8b30649e40b8eef0fc62dcbd9ed45b7a6352e1e6,38.9193789,-76.9741522,Superfd,,restaurant,20018.0
215,washington dc,5ab8fb06f680a4c08b3e3ac31a92f4b7054051ae,38.9306379,-76.9735192,Nido,4.7,restaurant,20018.0
216,washington dc,b28f7dce7fdc72683dd2994cf16a1acae6f0da70,38.9305754,-76.9735575,Bespoke Kitchen,,restaurant,20018.0
217,washington dc,4ba97fa75739ae6672a86ced65bd6c14671c920a,38.9305324,-76.97370059999999,Carl's Subs,4.8,restaurant,20018.0
218,washington dc,4a7e0ef8dba89ce225a9fef6ddc0bd8284baf4c6,38.929836,-76.974071,Fu Kang Carryout,4.1,restaurant,20018.0
219,washington dc,97c20ca0b7c6dda682a0feb7604f10d9697da9d6,38.9453231,-76.9715592,Grand China,2.5,restaurant,20712.0
220,washington dc,70a8300176bcf4364fa23e801a22e815f34a82dc,38.9515488,-76.9686118,Subway,3.3,restaurant,20782.0
221,washington dc,cb9c90b8cb3d0bc156aca41675f620768e69ce13,38.9489704,-76.9685444,Checkers,3.6,restaurant,20782.0
222,washington dc,dab9110dfc558ab87ffd5c43effe3b2a16f860b8,38.95168620000001,-76.9687651,Popeyes Louisiana Kitchen,3.5,restaurant,20782.0
223,washington dc,9acae5e5023328c9de66baeeeff940dd4a7d23c4,38.94995120000001,-76.9683983,Mid Atlantic Seafood,4.4,restaurant,20782.0
224,washington dc,5b08c68c15c72f52b7a9dede7f343106624d85da,38.9510106,-76.9679175,Super Japan,4.9,restaurant,20782.0
225,washington dc,a80ca9a5f62a51dab4c3d4ed8be0b0b857e2b47c,38.9511491,-76.9679226,Atomic Wings,4.0,restaurant,20782.0
226,washington dc,665b3122d793252554b900f08a654d2915aca0a7,38.9517065,-76.9687729,Janjer Enterprises Inc,,restaurant,20782.0
227,washington dc,188b78dc18b0f7413b15bc1904f1697fe88ba8ce,38.984982,-76.969248,King Kong Restaurant,3.1,restaurant,20783.0
228,washington dc,eefaa199b9117a5585bbecf1c6f863ba517cc70b,38.9850574,-76.9670207,Asian Carry Out,3.2,restaurant,20783.0
229,washington dc,67b2cfc1ce21c13e74b6ca12df63001b5fc15144,38.9845701,-76.9707855,McDonald's,3.5,restaurant,20783.0
230,washington dc,4d5ba153d1ad4221b01638b298a94d9a357b3f05,38.9850417,-76.9674093,El Amate Restaurant Inc,4.3,restaurant,20783.0
231,washington dc,861f6e44e1ef9059fa3873851d46c66e40a35d19,38.9850575,-76.9703942,Sabor Latino Restaurant Inc,4.3,restaurant,20783.0
232,washington dc,16fce28592ef649ea2036da7b7fef5480f4eedb3,38.89926,-76.980203,McDonald's,2.9,restaurant,20002.0
233,washington dc,578df01db4c22b02709421e3da9335b2fb8e1518,38.9003687,-76.9807296,America's Best Wings,2.9,restaurant,20002.0
234,washington dc,e80a2f1914bcb699e6b38a1d862f1c9a0c963e09,38.89872860000001,-76.97664820000001,Wings & More Wings,3.5,restaurant,20002.0
235,washington dc,cf8e6905a27187cb056552222c33c8b8115d943e,38.8991084,-76.9767091,Midcity Cafe,4.3,restaurant,20002.0
236,washington dc,659681ed8f6fde85d7e1a4ec6c037d0c2463646f,38.9038865,-76.9806205,Mother Rucker's Subs,4.6,restaurant,20002.0
237,washington dc,7594dc7fc1d903191d3f0a65c70ef9d426ba1bff,38.9067868,-76.97946040000002,Denny's,3.6,restaurant,20002.0
238,washington dc,db6102aa061b4d97778b274269bb3819c5836758,38.903222,-76.981025,Yum's Carry Out,3.8,restaurant,20002.0
239,washington dc,7435945ba09a23053fa716458c57bd1e8a54fe98,38.9069953,-76.9785495,Eddie's Carry Out,3.9,restaurant,20002.0
240,washington dc,05fc42058d316e43908c6fc487ca1c0655f76c40,38.9194465,-76.9790001,Zion West African Restaurant,4.0,restaurant,20018.0
241,washington dc,1ce4f18f36c55f4bd5e2081a8d9eb5b76633b6fc,38.9279171,-76.97792059999998,Soul Kitchen,4.0,restaurant,20018.0
242,washington dc,6ae707e86234b33922631247db250dee4195f9ef,38.9270539,-76.9797777,Rodney's Ribs and Chicken,5.0,restaurant,20018.0
243,washington dc,5823bb599c0e46b8598fcf81d82b01399604d356,38.945529,-76.977929,Johnny's Carry Out,4.0,restaurant,20018.0
244,washington dc,7324632df23f3fdf6b89d3e5d74daa46e28ce2f4,38.9455648,-76.9781062,SUBWAYå¨Restaurants,5.0,restaurant,20018.0
245,washington dc,ef10772eac8cac9509c1cb628ba8fea3ba469fc3,38.9454734,-76.97792,Flipit Bakery,1.0,restaurant,20018.0
246,washington dc,7951a2e4aebd172916a6acdefb137a8038207006,38.9423234,-76.9803297,Bourbon,,restaurant,20017.0
247,washington dc,80a595da59bc536c358949607c43ddbd7264147b,38.9713265,-76.9779918,China Sub Shop,3.8,restaurant,20783.0
248,washington dc,f03cba56f089c1d49eafb8fabc2edad28eb7c88c,38.97097279999999,-76.9778443,Jerk Hill Cafe,2.7,restaurant,20783.0
249,washington dc,aff7aa4663d35917dff58b7cea4b16a5accac7ad,38.971712,-76.9782733,Los Laureles,4.7,restaurant,20783.0
250,washington dc,6f7796cb35d36fde1b050bef21f97d5e3509f272,38.9714196,-76.9780723,El Dorado Sea Food,4.1,restaurant,20783.0
251,washington dc,4fe808a5a7b555e9c1e323b1d383025dfd40e3b9,38.9720036,-76.97855009999998,Chicken Loco,4.5,restaurant,20783.0
252,washington dc,d60001a8becbf13f24773ebc333a36d8a63664cb,38.9730881,-76.97977009999998,Pupuseria :Emily,4.4,restaurant,20783.0
253,washington dc,ad3199dd044fa432c1d84f9dd48e34104eae5c91,38.9726179,-76.98046579999998,Comedor y Pupuseria San Alejo.,4.3,restaurant,20783.0
254,washington dc,f40161fc3b6b53e4619bcea338fc9f3da6054fe4,38.9818003,-76.9779064,Cococabana Bar & Grill,3.9,restaurant,20783.0
255,washington dc,9f2ce6c94fe743700c6cb81efd25074d4d001b5f,38.9832701,-76.9769975,Don Pollo,3.2,restaurant,20783.0
256,washington dc,4d6345c4697522a38d1be5bdfcd2f91515424af7,38.9829221,-76.9798057,Central Asia,1.9,restaurant,20783.0
257,washington dc,cf2ddb608caa969d0dd1583f4a9f6c38ee2173d5,38.9841577,-76.97527609999999,Burger King,3.9,restaurant,20783.0
258,washington dc,89e0e2571b5a113ace1709a6e922c2e815c535ad,38.9832595,-76.9787085,Arby's,4.3,restaurant,20783.0
259,washington dc,da0f75ec84e526ddde6d5db0c2e76b50677a9c4a,38.9844287,-76.97394140000002,Irene's Pupusas,3.7,restaurant,20783.0
260,washington dc,3179ae2b2cbbf0d2bd063fc2d0c5027bd72ade29,38.983025,-76.979824,Three Brothers Italian Restaurant,3.6,restaurant,20783.0
261,washington dc,cb13cfddc28e2698e45eb8aa454b6a09590e2f0e,38.983258,-76.9778048,Pollo oro,5.0,restaurant,20783.0
262,washington dc,825648307a16445ce2bb114f7889019adf6122e7,38.9833513,-76.9801712,Taqueria Tres Reyes,2.6,restaurant,20783.0
263,washington dc,fc7e5c6ef9bea67b079d98e1ba478966ba4bef34,38.9818331,-76.9782667,Galaxy Sports,3.8,restaurant,20783.0
264,washington dc,eb9a94e272fa4fd7d2de034891a46bb7612c550f,38.9844371,-76.97828009999998,Kennys Chinese Carryout,4.0,restaurant,20783.0
265,washington dc,c74d87a61cbd09bb475c848b57295eb45cfa530d,38.9831842,-76.977007,Cuzco Number 2,2.5,restaurant,20783.0
266,washington dc,1ab378d27449188bca678e0265a42b84b05b96fb,38.9832964,-76.9768421,Emily's Restaurant & Carryout,4.1,restaurant,20783.0
267,washington dc,d8a446bb9e9f43e983ad709dc3bfae9ae861b697,38.9834686,-76.9779072,Rio Bravo Pastera Restaurant,5.0,restaurant,20783.0
268,washington dc,138920923714713bf1943c62326ccf5be7fe7239,38.9844716,-76.97853590000003,Taqueria El Mexicano,4.1,restaurant,20783.0
269,washington dc,f6eab030bb1b71fc9cfad0de197388d61b57d25f,38.9833537,-76.98008759999998,Pollo Primo,,restaurant,20783.0
270,washington dc,914d15489a7aaeafe616478c65420787bce32923,38.98357100000001,-76.9802282,El Triunfo Restaurant,4.0,restaurant,20783.0
271,washington dc,3b1b7c7e1167fbf08d35ee872cd66701c258dbd4,38.8668709,-76.98464200000002,SUBWAYå¨Restaurants,3.0,restaurant,20020.0
272,washington dc,6d52d67ec5f68f6ae9c8e3b335b4ca30e3520e8b,38.8664155,-76.9846155,Little Caesars Pizza,3.7,restaurant,20020.0
273,washington dc,39d1a9ae43295de8954e371dfdb84f7f67fd5af1,38.8669768,-76.987301,Capitol Hill Crab Cakes,4.1,restaurant,20020.0
274,washington dc,2f01d27be3f4e960a70e01fbcb890b67b2851820,38.8669531,-76.9875992,Art-drenaline Cafe,5.0,restaurant,20020.0
275,washington dc,6a73931cb57fb620141c68273a9a78c02f43c9ff,38.8670472,-76.98535820000002,Good Hope Carry-Out,4.1,restaurant,20020.0
276,washington dc,1b3a699d087bc9045c79d78da4d9a34e39cc4609,38.8662,-76.9825632,Good Hope Seafood,2.5,restaurant,20020.0
277,washington dc,6b3c19683f6ea8f7672538d6d4115ab8e58703d4,38.8669554,-76.9849203,Tony's Place,3.9,restaurant,20020.0
278,washington dc,f76a6b6d5b22cb9862bf64c2d549d13e8b71d44d,38.866844,-76.98695,Sunny's Carryout,3.1,restaurant,20020.0
279,washington dc,cbb0baeec7cb019b3b0a2e42e7bc68c73078cb2c,38.8798,-76.9852536,New York Pizza DC,3.6,restaurant,20003.0
280,washington dc,05a8e6ac59ab1a8fb7a29f21ab41abf66cbb1753,38.8786247,-76.9822204,McDonald's,3.4,restaurant,20003.0
281,washington dc,26a9cf489d60041b707ef3ea4ec3923e06cf6be3,38.8801282,-76.9842399,Lucky Carryout,3.0,restaurant,20003.0
282,washington dc,31293431942f2bf61ef6cd0c6ec8168241a1488a,38.8800564,-76.98395409999998,New York Pizza And Grill Kabob,,restaurant,20003.0
283,washington dc,0aee9d02eb5af43ffc4447811ce4707c3a698721,38.879927,-76.9873147,SUBWAYå¨Restaurants,3.4,restaurant,20003.0
284,washington dc,8da531f70a1ff218eb915c80ad176867e4b45d31,38.8816749,-76.98808740000003,Gourmet Express,3.5,restaurant,20003.0
285,washington dc,69f2d1c1326bf04666d44af2f9f49b63b31e73a8,38.8810989,-76.9866614,La Lomita Restaurant,3.5,restaurant,20003.0
286,washington dc,747ab08a464bb60a1ce5e8f0b22f91053d1ae38a,38.8808972,-76.9877079,Mangialardo's,4.8,restaurant,20003.0
287,washington dc,c3355a80ff92cd3ed4fbd036f5e3c4951a5675bf,38.8901156,-76.9857212,Al's Gourmet Pizza,3.0,restaurant,20002.0
288,washington dc,2b18c18bfd748984d1667a4d8f81c8dbfbe941ed,38.8900854,-76.983253,Hong Kong Carryout,4.1,restaurant,20002.0
289,washington dc,9893824bf919beb2be8239e894e3f5d515e1288d,38.88790720000001,-76.9838613,Kwan Fo Cheung Lin Fo,3.3,restaurant,20003.0
290,washington dc,6b5df2fde962d09db36d3c2352974063f94bd8cb,38.8951861,-76.983359,Far East Taco Grille,4.6,restaurant,20002.0
291,washington dc,b826496972e3672715a207833d657e68540cc3a4,38.8949492,-76.98381859999998,Millie's Market,4.9,restaurant,20002.0
292,washington dc,fbe15f61b19760af093fb74d677304e42d3e1856,38.899959,-76.986494,Biergarten Haus,4.3,restaurant,20002.0
293,washington dc,476823114e78a8cc8edb2860b9b4b908f382b9e6,38.8999134,-76.98705229999999,H Street Country Club,3.9,restaurant,20002.0
294,washington dc,4fdd555b5d9563ec7ce943b7884e6cbdbb381814,38.9002524,-76.98156170000001,SUBWAYå¨Restaurants,1.9,restaurant,20002.0
295,washington dc,a2502ccb9afef6a2a6fd2c6beed4b950bc813094,38.9004441,-76.98666870000002,RedRocks H Street,4.0,restaurant,20002.0
296,washington dc,5136c7e5fb2f3907a9e8f2d6082456732a75f7e5,38.899987,-76.9850079,DC Conscious & Cafe,5.0,restaurant,20002.0
297,washington dc,e5fa11194f3f38ec3d8630d9f0d652be9455357c,38.8999827,-76.9852834,TonyÛªs Place,4.4,restaurant,20002.0
298,washington dc,6f8cb40f537bca9c650b5a530a8ebf04a744094b,38.8998314,-76.98573,Tony's Breakfast,4.6,restaurant,20002.0
299,washington dc,231bebce5ef5c02d22678a90055601aec46e66ad,38.89995220000001,-76.98576899999998,BAB Korean Fusion,4.3,restaurant,20002.0
300,washington dc,086f70f0282f0a1a8367ec5d554986e4977e863b,38.8991067,-76.9851262,Checkers - Closed,2.5,restaurant,20002.0
301,washington dc,0036d276944443f5a961724853264f8c75c81d30,38.9003709,-76.9862833,IMM on H Thai and Sushi Bar,4.3,restaurant,20002.0
302,washington dc,8ae21ed8c0dc72b238db7df8bdfaa53eb79629af,38.9004088,-76.98739309999998,Shawafel,4.0,restaurant,20002.0
303,washington dc,bd7e302181cd29ee878fd920f771b2b406bd8871,38.9004068,-76.98634820000002,Impala Cantina y Taqueria,4.2,restaurant,20002.0
304,washington dc,18d4a9bd873d484ba82284aa72fddf3daefe719e,38.9001535,-76.981533,China Wok,4.4,restaurant,20002.0
305,washington dc,464c512776c51a87124602f1250a803d31b04dce,38.8996025,-76.98141770000002,China House,3.4,restaurant,20002.0
306,washington dc,985c4e3f7bbd3ca16e9c55a3940f4213a6c2b315,38.9000359,-76.98667490000003,Maketto,4.5,restaurant,20002.0
307,washington dc,3dabd2deba3099a43567197ed2d9f3421dba3bbc,38.9004236,-76.98667579999999,Sospeso,4.4,restaurant,20002.0
308,washington dc,83e8c3fd2c2f60e6e7f9761b0e4799c6a9d76f40,38.9004,-76.9873246,Stable DC,4.7,restaurant,20002.0
309,washington dc,851f79c9b1dd991e2572b622aa591cda9f64e8ac,38.9004427,-76.9874703,Sally's Middle Name,4.4,restaurant,20002.0
310,washington dc,9ea7d78c69b01875091e5d961b05dabf80200db6,38.9105888,-76.9849353,Panda Chinese Restaurant,3.9,restaurant,20002.0
311,washington dc,4e48a0e4cfa3162ed85f18ab0419e944614ea739,38.909588,-76.98369459999998,Kenny's Carry-Out,4.1,restaurant,20002.0
312,washington dc,4d560831b5e026db4cb9946767fc9130934c2e2d,38.9097314,-76.9851166,Montello Deli,4.4,restaurant,20002.0
313,washington dc,2cc513f45ad18c557eed9eb34c7819230c28fb6f,38.9105132,-76.9850451,US Seafood/Tony's Breakfast,4.5,restaurant,20002.0
314,washington dc,8173fa8d22adaf2d21632df05c99614fa490a322,38.9156047,-76.9830411,Naked Lunch,4.9,restaurant,20002.0
315,washington dc,6e79bfc78c17f54480275ac55e0cce2923e392a6,38.915312,-76.98413199999997,Pidzza,3.9,restaurant,20002.0
316,washington dc,9ddf50e0b2cb0c3aa1001ae5ff10f8f266fca1d8,38.915202,-76.985248,Palette Dome Cuisine,5.0,restaurant,20002.0
317,washington dc,98c515e63f90fb4af4a926086da3c745216e04fa,38.9146349,-76.985552,Ivy City Smokehouse Tavern & Market,4.4,restaurant,20002.0
318,washington dc,a57ca409152d3e5b5305ceb27eff4b2733ddc1a0,38.9151631,-76.9836848,Gravitas,,restaurant,20002.0
319,washington dc,2fca90d75d2e50d1ea2e6e9c2bc46a5126f5dadf,38.9147224,-76.9844715,La Puerta Verde,4.4,restaurant,20002.0
320,washington dc,9c0ee6ce9709302780110964d2e9aec23a4ccdff,38.9147164,-76.9845653,Ari's Diner,4.4,restaurant,20002.0
321,washington dc,131305828dd80e6e09f8f4580162017b43471407,38.915202,-76.985248,Caleb's Cooking Company,,restaurant,20002.0
322,washington dc,1cbeba3f5dc897e61e6975e1404504bfecf28a99,38.9152,-76.985249,Caliburger,,restaurant,20002.0
323,washington dc,e20b4d412510b855415d6806db1890041f548a32,38.9146713,-76.9872221,tamales,4.0,restaurant,20002.0
324,washington dc,a0659a073bcb9e2df8a7ce7a8a8e8c9b48cfcade,38.926626,-76.98188499999998,Wah Mee & New China,4.1,restaurant,20018.0
325,washington dc,ce399d0caae54634f060770cab0d88db2bf13ecf,38.9247565,-76.9863225,Jerry Chan's Restaurant,4.3,restaurant,20017.0
326,washington dc,7653151709b0f3655d84096bdf89587249a8b03f,38.9586192,-76.9855027,Leylas Cafe,4.3,restaurant,20782.0
327,washington dc,47bde7fa8e2ec069bed7372660ee9e2ac0a2608d,38.96831270000001,-76.9841922,Wendy's,2.9,restaurant,20782.0
328,washington dc,f096a65e24372410b45499754d28cb8e1a3937cf,38.9687354,-76.98396770000002,Davco,,restaurant,20782.0
329,washington dc,c981d2cdabb03d51f229d1df73585c3d9ef81aaf,38.9854075,-76.98285909999998,Chicken Rico,3.9,restaurant,20783.0
330,washington dc,07ea0922b5130500bd42c3826bce865726431044,38.9855767,-76.9844193,Tabeer Pakistani Cuisine,3.9,restaurant,20783.0
331,washington dc,99bf066feee6df1891ebeee24a65735b926db539,38.9848363,-76.9816788,Wendy's,3.6,restaurant,20783.0
332,washington dc,01d5d9f0ad8739efed98bf352cb631e83a47503b,38.9841186,-76.9820399,Season Seafood Buffet,3.5,restaurant,20783.0
333,washington dc,275160b5098921528b1c15bc8cafe56b6beb6676,38.9849208,-76.9812696,Junction Jamaican Restaurant,4.0,restaurant,20783.0
334,washington dc,5969b1df3afb43846e0dac209c0f4a46ed099691,38.9851985,-76.98269609999998,El Carbonero Restaurant,3.6,restaurant,20783.0
335,washington dc,a5b6c49f270e64c07f81e18115b67e234b09064d,38.985514,-76.9841584,Crystal Restaurant & Bar,3.6,restaurant,20783.0
336,washington dc,a5ec2e8f04eb03b8a8c9f0b5c02bf4266697e81c,38.985688,-76.9833292,Pho 301,4.3,restaurant,20783.0
337,washington dc,f271838c69b7a0b4ee2861adf241fc74a636aa68,38.9857761,-76.9809973,La Chiquita Restaurant,3.6,restaurant,20783.0
338,washington dc,95376fc371d49147d4c97329df97ba7cf73c362f,38.9858744,-76.98158769999998,La Chiquita,3.1,restaurant,20783.0
339,washington dc,8e0f57b2a3ff9bdd40b7e11692371d0b2372a615,38.9859198,-76.98096269999998,China Palace Restaurant,4.2,restaurant,20783.0
340,washington dc,ec4cb39ea9e90b0d11e698904bcd9eb5ebfc96cf,38.9858925,-76.98437009999998,Manna Restaurant,4.3,restaurant,20783.0
341,washington dc,6ec0e44d7b3d8a5eefc07bfd75b41478b41f9a41,38.9854526,-76.98057990000002,Pho 75,4.4,restaurant,20783.0
342,washington dc,d9b798caea30586bf8f41086438a1fc162b72e8d,38.9858522,-76.98433929999999,O's Place,2.0,restaurant,20783.0
343,washington dc,52d545d42d38cea10351875d2f3968dd699f51c1,38.9851517,-76.9826817,International Buffett,1.2,restaurant,20783.0
344,washington dc,7a1293c83cdb149152f4f1254cecbabc615d114c,38.9844452,-76.98216140000002,Pupuseria La Cabanita,4.0,restaurant,20783.0
345,washington dc,5b270fd042fc5851cb5a4f2900b0bebac59a7b42,38.9849208,-76.9812696,Johnny Maumbo's Famous Chicken and Fish,,restaurant,20783.0
346,washington dc,18cbd186f7487fb8c03d5f09bf8191c3c4c4e537,38.9859378,-76.9842877,OMEGA BAR & LOUNGE,4.3,restaurant,20783.0
347,washington dc,fd84eaadea0285e5f566b5f64ce3fcb304ca3a74,38.9850115,-76.97934649999998,Casablanca Bakery,1.0,restaurant,20783.0
348,washington dc,a80f97e2c7a4769222178c50e92c1705fc8d9fcc,38.9854865,-76.98298340000002,Teriyaki express Japanese Grill,3.8,restaurant,20783.0
349,washington dc,4e0d3d0b50da50c2e5ad662b48dcc0eb6f76aab0,38.9857771,-76.980941,Chikita Restaurant,3.4,restaurant,20783.0
350,washington dc,2cf6f5ae106f491347f3c0d01627e420c9ae62ef,38.9854368,-76.9844243,Halal Meat,1.0,restaurant,20783.0
351,washington dc,00cea1ce192e2c2db9013b136dc6235552a358d5,38.864746,-76.989589,Uniontown Bar & Grill,4.1,restaurant,20020.0
352,washington dc,0d049c527a1fb5c077e5c00c9e6889e756693214,38.8637848,-76.9901672,Caribbean Citations,4.1,restaurant,20020.0
353,washington dc,cadf263f475b4b9ac4c59bdb7ebf2daf0967079f,38.862806,-76.99257159999998,King City Restaurant,2.3,restaurant,20020.0
354,washington dc,82b8f7b78b0d9622c2042fdff69a87b05a79ab76,38.8631974,-76.99204940000001,Z Mart And Food,,restaurant,20020.0
355,washington dc,21873cf3452d18ef9d1b1a7a75d9d1d5a8d30f35,38.8650656,-76.989487,Cheers @ The Big Chair,3.8,restaurant,20020.0
356,washington dc,9f602e6803c2fd950a18bb42d18808c8be03c07d,38.8657917,-76.989122,Mama's Kitchen And Pizza,4.4,restaurant,20020.0
357,washington dc,0e7ce58c0de0751f155a0bbab7939b1f84f73677,38.8662954,-76.98930759999998,Turning Natural,4.7,restaurant,20020.0
358,washington dc,52836cf70f2ea033918b7fa07fac6558e7afe750,38.8653463,-76.9893893,Kings Cafe,,restaurant,20020.0
359,washington dc,c02520954881642db46a28b33de4a3941510f8c5,38.866221,-76.988811,MAP,,restaurant,20020.0
360,washington dc,483e9a05f5fd1a9dff9a1087cbfbf723cce261dd,38.8752641,-76.98976970000002,Cedar Deli,1.5,restaurant,20003.0
361,washington dc,04aeab7f6ff7551974f60ceb41afa48ebe9a5dc0,38.873834,-76.992685,SUBWAYå¨ Restaurants (Military),,restaurant,20374.0
362,washington dc,daf87335846a9bc4a7eb4a9ffb22182ce555b59f,38.8773407,-76.99470040000001,Las Placitas,4.1,restaurant,20003.0
363,washington dc,f41f2750e59f1b58be101c56c501d2f267284af0,38.8773152,-76.9947152,Pike Peruvian Chicken,,restaurant,20003.0
364,washington dc,30c50fcfff51dec1432f9f77860232635d8a98a1,38.882189,-76.99460699999999,Belga CafÌ©,4.0,restaurant,20003.0
365,washington dc,51ee53f29ffa2d3f865e4921d988b56004845cf5,38.8825784,-76.99474479999998,Banana Cafe & Piano Bar,3.9,restaurant,20003.0
366,washington dc,69d94a9b0375c6eb60e42295484a4617927b6652,38.881846,-76.994725,Nooshi,4.4,restaurant,20003.0
367,washington dc,d7618db6c386b0a74f8a9777ad5eccf7f7a993b1,38.8828783,-76.9947915,SUBWAYå¨Restaurants,3.7,restaurant,20003.0
368,washington dc,c47f01b521c844bbbfc74c22ee56e6433dbf5c6d,38.8819626,-76.9945852,Senart's Oyster & Grille Room,4.4,restaurant,20003.0
369,washington dc,1749091fde092babdc894399dcc4af8c6c504b2a,38.8822114,-76.9945958,Tio Javier,3.5,restaurant,20003.0
370,washington dc,eadcb2cbc71acd65308e58d930a5edf6cda56dc0,38.882113,-76.990697,Pizzaiole,3.5,restaurant,20003.0
371,washington dc,54a89772839215bed0e830f93b2be5a6b213a5ae,38.8830409,-76.9946895,Cafe 8,3.9,restaurant,20003.0
372,washington dc,444595eaae71d907af333ed259303d06dce6df35,38.8825275,-76.99469350000003,Trattoria Alberto,3.9,restaurant,20003.0
373,washington dc,2338389cab19a5696802e3697b041e348a5ec476,38.88210150000001,-76.990551,Someplace Else,,restaurant,20003.0
374,washington dc,6c80bb1b243bb7b5cb934542aa334ae9e07d840f,38.8821114,-76.99070259999998,Anh Dao Pho,4.2,restaurant,20003.0
375,washington dc,512bbebd3b07a50e8a44f44d30142401ce994a82,38.8818417,-76.9946965,Garrison,4.6,restaurant,20003.0
376,washington dc,21b52b993f8a560c28eaddb0ef845061a6b64fcd,38.8894232,-76.9880116,Lincoln Park Kitchen & Wine Bar,3.7,restaurant,20003.0
377,washington dc,bb37ade1e021867799e38c9563f67716dc3f963a,38.8909256,-76.9921212,Boltburgers,,restaurant,20002.0
378,washington dc,df7bd5213b65e00290643e5363df54fa07d450ba,38.900388,-76.9890312,Toki Underground,4.4,restaurant,20002.0
379,washington dc,ed06139f09126e61132159b17e8390305828f2eb,38.9003929,-76.9893064,Sticky Rice,3.8,restaurant,20002.0
380,washington dc,c690a80e16f0e9a4093238498e0f78148a7ccac6,38.9004066,-76.9889178,Granville Moore's,4.3,restaurant,20002.0
381,washington dc,27ef4ad84206fada35abd73452e8f891e81bf5d9,38.9003742,-76.9908367,Taylor Gourmet,4.0,restaurant,20002.0
382,washington dc,f41097675161aba846852d1667e73517d83a9db0,38.9003881,-76.9898523,The Queen Vic,4.5,restaurant,20002.0
383,washington dc,7f8ca61913c2edb654b87e626b4bdcbac60e2a8d,38.9000558,-76.9887126,Smith Commons,4.2,restaurant,20002.0
384,washington dc,984df82cbde02d858e035bf109560a7894b294ac,38.9005093,-76.9900343,Horace & Dickie's Seafood,4.1,restaurant,20002.0
385,washington dc,9a14177b5a5417e08b6df70fb77a047aeeec4b2c,38.9004124,-76.9920123,The Liberty Tree,4.3,restaurant,20002.0
386,washington dc,71a997c0b18e5e0ef58ca3e25523cd8a0c25a4d5,38.9004128,-76.9907703,&pizza,4.5,restaurant,20002.0
387,washington dc,5f6ff5471921f9326078c951a493ecf08c91bd50,38.9003754,-76.9904657,Cusbah,4.3,restaurant,20002.0
388,washington dc,866d9cf51e8b69c464f4c7a54edfe715d27fde46,38.8999828,-76.9886085,Sol Mexican Grill,4.2,restaurant,20002.0
389,washington dc,92e8ed967b7118ffbca8c7d794206ee99d467538,38.899969,-76.98857199999998,Pow Pow,4.2,restaurant,20002.0
390,washington dc,3a639c89f052d6ff5d9d8749111120486d26f49d,38.9004191,-76.9884951,DC diner,4.5,restaurant,20002.0
391,washington dc,4e50a02716f4f4f8c4181d91102a1c9d113f80b8,38.9003908,-76.9888719,On The Rocks,5.0,restaurant,20002.0
392,washington dc,735191c241e4273399c58490c44d98b286ade9f2,38.899917,-76.9905343,Touche Supper Club,3.9,restaurant,20002.0
393,washington dc,aae49875a24a34f26586e9d22eecc836a56e0b03,38.9004065,-76.9897865,Kitty's Saloon,4.8,restaurant,20002.0
394,washington dc,76d01fa1cf26111d19fd772bd429f6b220117bc5,38.899977,-76.992468,Ben's Upstairs,4.2,restaurant,20002.0
395,washington dc,3dd0b135912ccf5b81abdc261b482a93822a7659,38.900529,-76.99390799999998,Chupacabra Latin Kitchen & Taqueria,4.0,restaurant,20002.0
396,washington dc,2f95e248f2c551b118339e2c14a0076cf7768cb6,38.9004117,-76.98897420000002,Chapter II,,restaurant,20002.0
397,washington dc,b7a02be7269f4e37af0964216287f21139ebbc3c,38.8999975,-76.9904528,Choong Man Chicken And Seafood,4.3,restaurant,20002.0
398,washington dc,6681fef2a69e23c66ec50e5ffaab38d41ef5a9f9,38.9003913,-76.9910207,Copycat Co.,4.6,restaurant,20002.0
399,washington dc,e1dd042540ca59082bffea6ac47318bc2a8a2351,38.89996890000001,-76.99206170000002,The Haymaker Bar,4.6,restaurant,20002.0
400,washington dc,ee17b459df75a9ee8a2d0fe2ff099c79d38e48f8,38.8999711,-76.99246490000002,Ben's Chili Bowl,3.9,restaurant,20002.0
401,washington dc,24894f23c314f579c4472645f12f96443b0ed9ea,38.9008552,-76.99320759999998,Cameron's seafood,,restaurant,20002.0
402,washington dc,d5dd04d98efa1a1cfa7815703393827fc016f533,38.900452,-76.9941931,Mythology Restaurant,3.9,restaurant,20002.0
403,washington dc,9daba6db57592660dbe5547471c850bb1addc351,38.9166609,-76.9940186,MGM Roast Beef & Catering Washington,4.5,restaurant,20018.0
404,washington dc,b8d48c215e5cfd6c0e95169dccc2844fe94fc898,38.9159115,-76.9932631,McDonald's,3.6,restaurant,20018.0
405,washington dc,56ed1a3d57dd53b0df643fca8e37d4d36c39d2e5,38.92485,-76.9901517,Menomale,4.6,restaurant,20018.0
406,washington dc,799ac54c718adf21a7f6defdb86cc56a4cb0023d,38.9202622,-76.98966109999998,SUBWAYå¨Restaurants,2.9,restaurant,20018.0
407,washington dc,288452a2600f05f773f31b947edacb485f7a303f,38.9248478,-76.9901488,Menomale Craft Beer and Pizza,4.7,restaurant,20018.0
408,washington dc,c86f804aa1251cb6a862ac7e0b75253ee8d9d7ad,38.9208999,-76.993996,Chipotle Mexican Grill,3.2,restaurant,20018.0
409,washington dc,a08c7f7e9c5ade1bbe9d9f5e674e99105c833f4a,38.9202336,-76.989681,Asian American,3.6,restaurant,20018.0
410,washington dc,75305cc786e13cfac639122f3bbb5a5e509fe271,38.9207394,-76.9946095,Sala Thai,4.3,restaurant,20018.0
411,washington dc,229d5e96e1acba0f3ba16b51452c84d05c273822,38.9215126,-76.99401540000002,The Carolina Kitchen,3.8,restaurant,20018.0
412,washington dc,6c207dfbea412ce204daebfcff5ee4195e424a70,38.9212408,-76.9941577,TKO Burger,3.4,restaurant,20018.0
413,washington dc,8f5ebc0c5126cc649a9e2e5173779471c1e708a4,38.92077620000001,-76.9942662,Jersey Mike's Subs,4.4,restaurant,20018.0
414,washington dc,3f64f6cf729c96e62b8d650db4d6967db48bf107,38.929405,-76.991024,Brookland's Finest Bar and Kitchen,4.5,restaurant,20017.0
415,washington dc,38713403beb8c365c427ddb4bec7c1ecc819410b,38.9328023,-76.9911432,SUBWAYå¨Restaurants,3.0,restaurant,20017.0
416,washington dc,de761aa13b8ecf2e4da46a7f1474d2e339356fa5,38.9327343,-76.9911559,Wings To Go,3.4,restaurant,20017.0
417,washington dc,7a2e50d8de94e4c15d8a13a07377e15c0dcc6be7,38.934269,-76.990959,Tsim Yung,3.8,restaurant,20017.0
418,washington dc,33c3fbc4b169045a7708dc30a77adafeb10c29f3,38.9332277,-76.9912614,Pizza Mart,3.8,restaurant,20017.0
419,washington dc,bba30e65e761e6e9bf657510091cbc7efc27ec7a,38.9332414,-76.9909054,Steel Plate,4.1,restaurant,20017.0
420,washington dc,ec38368fc29f61a27181a9e14e25247f0b379718,38.9333148,-76.9911788,The Brookland Grill,4.2,restaurant,20017.0
421,washington dc,5ea360d7939865d2f879daff949dbe8121de9f6c,38.9329856,-76.99087990000002,Murry & Paul's Restaurant,4.6,restaurant,20017.0
422,washington dc,a82f74adfa1c637e41906187ff8a8cab1611ee29,38.9357879,-76.9913372,Pho 12,4.5,restaurant,20017.0
423,washington dc,906e6cdbb0789ffa0ab1d49d8de106b127bf12b6,38.9375843,-76.99079,San Antonio Bar & Grill,4.0,restaurant,20017.0
424,washington dc,b71f5fba2c2da5a0b9e51a53c480b252b6412b87,38.938026,-76.99063000000002,Today's Pizza,4.1,restaurant,20017.0
425,washington dc,e6b670d82a5b8468a6fa13362994892295361711,38.9373845,-76.99030309999998,New Tong Shing,3.6,restaurant,20017.0
426,washington dc,b51f87f010a03ad34987e4edcd4d5fd6d68c41bf,38.93671120000001,-76.993981,America's Best Wings,4.4,restaurant,20017.0
427,washington dc,ee77e462ea4192d7c793187f04c7b632b43f459a,38.94949,-76.993315,McDonald's,3.4,restaurant,20017.0
428,washington dc,edac86356dea87a1262920f6d409e56a15a9f158,38.949133,-76.992874,Full Yum 2,4.2,restaurant,20017.0
429,washington dc,12e29893c42598f754ed6f5e3aa67224ceb20ad8,38.9618422,-76.993131,Escobar bar&grill,3.0,restaurant,20782.0
430,washington dc,fb72680dadee2320d82e160c9fe0e57e69f02fb0,38.9617707,-76.99401329999998,China Sub Shop,3.7,restaurant,20782.0
431,washington dc,4f0bd58448a3b88bcdc475b4958582024a6f2ac6,38.9606599,-76.99477879999998,America's best wings,3.7,restaurant,20782.0
432,washington dc,d6bb0d8921379427a7a94f1aa9dd37ef8b083326,38.9629519,-76.99342800000002,Silvestre Chicken,4.2,restaurant,20783.0
433,washington dc,e41db4975acf6873d2fbbab9933cacf46d7575c7,38.9629519,-76.99342800000002,All Power Pizza & Fried Chicken,3.0,restaurant,20783.0
434,washington dc,0452d1ac94ef7302d4ef1ba04c3e6b8b391bd8e5,38.9619326,-76.9941285,Ruff N Ready Crab House,4.3,restaurant,20782.0
435,washington dc,236b87dbdba6447614026233e2e2eebe2cc9260d,38.9627833,-76.9937195,Mi-Patria Restaurant,4.1,restaurant,20783.0
436,washington dc,5665f1d78ad81cfc1389bd24e2e0bde42f8ad4f2,38.9756742,-76.9926395,La Chiquita Restaurant 1,3.2,restaurant,20912.0
437,washington dc,c918b5cbea856d55e15b06d872f84d0083abf5c8,38.97558,-76.993175,Jasons Sub Shop,2.4,restaurant,20912.0
438,washington dc,4ab9909f841d47a5742c132162a6f206a704ebe7,38.9756967,-76.99441379999998,La Preferida,4.9,restaurant,20912.0
439,washington dc,3236e5269e95503df156e06767b31ceeacd72dda,38.9728424,-76.99429740000002,Caribbean Sea Restaurant Inc,4.2,restaurant,20912.0
440,washington dc,b19ca850090f2e6414b5ea6279ad64351de4e718,38.9840664,-76.9879154,IHOP,3.6,restaurant,20912.0
441,washington dc,58e3dec9f1f2cbcd570ad8f86718965446be7cfa,38.9859202,-76.9864623,Taco Bell,,restaurant,20912.0
442,washington dc,18ca7f0d63dab3fa1828359ccf18e8d8052773af,38.873483,-77.000693,District Winery,,restaurant,20376.0
443,washington dc,356f28d6285f151acd1e55d1fa05035a388af10c,38.8750715,-77.0007818,Bluejacket,3.9,restaurant,20003.0
444,washington dc,e5fd4c81d0d6f2fab3800a14cc5d954ba37d4f6b,38.8806421,-76.9953266,Rose's Luxury,4.6,restaurant,20003.0
445,washington dc,5870058d819974046b18b99eb179e097ac8f1990,38.88083320000001,-76.9952809,Lola's Barracks Bar & Grill,4.2,restaurant,20003.0
446,washington dc,1e214d2642f2119cb8d64101fd29205bb4a26fe0,38.880773,-76.995343,Finn McCool's Irish Publick House,3.6,restaurant,20003.0
447,washington dc,9bdfa0e61949da163ed4d4389da46432dc764b81,38.8750621,-77.0011849,Nando's Peri-Peri,4.4,restaurant,20003.0
448,washington dc,d7c5a8f09043baae71dad34db18da582ecd7715f,38.8811347,-76.99524659999999,Spring Mill Bread Co,4.4,restaurant,20003.0
449,washington dc,17686828d05bb072277773436ec1f06899a3e111,38.8751886,-77.00080849999998,The Arsenal,4.3,restaurant,20003.0
450,washington dc,6f11c323ce950253545494df026abe1567e38ef3,38.8795698,-76.99518309999998,Cafe Kimchi,4.6,restaurant,20003.0
451,washington dc,012a996fd26056d57afc28f23dd81168ac2454f6,38.875188,-77.00032519999998,TaKorean | The Yards,4.5,restaurant,20003.0
452,washington dc,10f400583cfdc450ead4e855a94babab80800d5b,38.8751,-77.0003223,sweetgreen,4.3,restaurant,20003.0
453,washington dc,574f46cb1862ee09899d2aac33297e33ebb59103,38.8807013,-76.9953255,Pineapple and Pearls,4.8,restaurant,20003.0
454,washington dc,51df0d40b74b611ccf06c59114ca384151e77290,38.8747758,-77.0017757,Potbelly Sandwich Shop,4.0,restaurant,20376.0
455,washington dc,723da8cbb30570105276bda8e80524db9a0c2bc2,38.8751434,-77.00167979999998,Willie's Brew & Que,3.3,restaurant,20003.0
456,washington dc,6dc888dca24f7ee422607f9bec0152cbce6617d1,38.8777412,-76.9952087,The Brig DC,4.4,restaurant,20003.0
457,washington dc,170bf0a530c72561b93784820bb4afcd42a8bfc6,38.877974,-76.99520799999998,Al's Carry Out,4.5,restaurant,20003.0
458,washington dc,61703fc11be6e8c453743f2634d92e0ee1c73d76,38.8743102,-77.00055809999998,The Juice Laundry,,restaurant,20376.0
459,washington dc,1a58a50db95548e79be652f7722bfce4ad45d6af,38.8750574,-77.0009523,100 Montaditos,4.2,restaurant,20003.0
460,washington dc,2510dde8c796b4f1d9ca4f64cb8a03059af9e99d,38.882109,-76.995276,matchbox,4.3,restaurant,20003.0
461,washington dc,78014970828320f9bacc0b2ab85e4c1561904585,38.8815941,-76.995337,Lavagna,4.3,restaurant,20003.0
462,washington dc,e79c0ef156f7a5e4a82f9e92bd2a6f7735ac0f02,38.88665200000001,-76.996438,The Market Lunch,4.2,restaurant,20003.0
463,washington dc,bcc74e6d3948aca02a53eba327e446385502614a,38.8820245,-76.99529100000002,Ambar Capitol Hill,4.6,restaurant,20003.0
464,washington dc,91eb8371b1f6184226df3f80ccf5f64f4612aada,38.8853229,-76.9963932,Montmartre,4.2,restaurant,20003.0
465,washington dc,9a5e5b48b0ea5d592a69abee7ed47a50bfd88d61,38.8868579,-76.99583659999998,Acqua Al 2,4.4,restaurant,20003.0
466,washington dc,5a7f90ad2eea696916af6c7aa7feea7c39904295,38.88486339999999,-76.9972764,Hank's Oyster Bar,4.2,restaurant,20003.0
467,washington dc,54e1137f0458d94734bac02267e5394f73197b71,38.8832565,-76.99522900000002,Chipotle Mexican Grill,3.4,restaurant,20003.0
468,washington dc,8b003e229b00e445c60ab0f82d4f4b844d04f2ba,38.885242,-76.99672,District Taco,4.4,restaurant,20003.0
469,washington dc,9b0e2f48664806b48d9748b8ebbeb0a37fea608c,38.8851134,-76.9980197,Aatish On the Hill,3.3,restaurant,20003.0
470,washington dc,e4f95977a0bd20e5ffb30888003c29a1d5793424,38.8848655,-76.99765190000002,BeuchertÛªs Saloon,4.5,restaurant,20003.0
471,washington dc,9641f69e25aa6ed8a25bf3de3dfece1332bcd0e2,38.8833704,-76.9953036,Popeyes Louisiana Kitchen,3.6,restaurant,20003.0
472,washington dc,ca852827a6d0650271c7b83a7937b4c045a6724e,38.885207,-76.998271,Mr. Henry's Restaurant,4.2,restaurant,20003.0
473,washington dc,6adc7a91e3bb57521217db8b6ce7a9abdd189950,38.88531320000001,-76.9963971,Seventh Hill Pizza,4.5,restaurant,20003.0
474,washington dc,3b07d2bb4f929b34daa3dd4e360203c17da68a95,38.88492,-76.997414,La Plaza Mexican Cuisine,4.0,restaurant,20003.0
475,washington dc,e95e5d2d8783f02b68784f9e8a32ef925c1399ae,38.886556,-76.995875,Boxcar Tavern,4.2,restaurant,20003.0
476,washington dc,03cde84d3afe7d5aa4b028de2caed7fee7ca0f09,38.886562700000006,-76.995776,Tunnicliff's Tavern,3.9,restaurant,20003.0
477,washington dc,27d9487a62ba78d3c0c67ea6e582caaf6bd3f934,38.88461160000001,-76.99664720000001,Sanphan Thai Cuisine,4.1,restaurant,20003.0
478,washington dc,6bbe6ab96ec1bcba83607c5b74193a2835075f1f,38.8854668,-76.9975042,Sizzling Express,4.0,restaurant,20003.0
479,washington dc,514a0459f5503ea64cf701db8878b6d22db0d0a9,38.8822316,-76.9953338,Szechuan House,3.4,restaurant,20003.0
480,washington dc,5b64fb7bce75378a5b07d30380cca8109e16b32e,38.8818875,-76.9952431,Cava Mezze,4.2,restaurant,20003.0
481,washington dc,2853612358daf715764fc75fdfa519d97bd714ef,38.8822316,-76.9953338,Medium Rare,4.3,restaurant,20003.0
482,washington dc,6a79411b55213bb91ea4ed64d02f010af2555313,38.883507,-76.995243,&pizza,4.6,restaurant,20003.0
483,washington dc,fc116e33b94537538d1565f72ed9dd9998822088,38.8830295,-76.9952437,Soze LLC,,restaurant,20003.0
484,washington dc,7d6b86ba5ff9131c35da53ebe93dbe6effc8c0d7,38.8825935,-76.9952681,OpheliaÛªs Fish House,4.4,restaurant,20003.0
485,washington dc,3e3378d34ec8236124544085292a8a3f4e0e3d40,38.8830295,-76.9952438,CHIKO,5.0,restaurant,20003.0
486,washington dc,934affea41010c5ab1510c7b543c56a5154f93a1,38.8832052,-76.99527859999998,Eatbar,4.3,restaurant,20003.0
487,washington dc,cb44527feaf777f15184b526af4186ce70e159db,38.883466,-76.9991,city park,,restaurant,20003.0
488,washington dc,635fc472014399e42a23ca7e539c3135e4196e63,38.884862700000006,-76.9972686,Hanks on the HIll,5.0,restaurant,20003.0
489,washington dc,65ef842d84b87c0b1e172b7d3eb137dfb6b009de,38.88515770000001,-76.99650749999998,Joselito Casa de Comidas,4.1,restaurant,20003.0
490,washington dc,6cd85709a57f4de00ed802559c4f57c3a42e5bb3,38.8851145,-76.9978686,Barrel,4.5,restaurant,20003.0
491,washington dc,832982e1c9f83cf761e2420b160709eff196746a,38.8866489,-76.99644040000003,Eastern Market Station METRO,,restaurant,20003.0
492,washington dc,99c7259ca766ae6e12cab529661b2e2ded67cd26,38.88637470000001,-77.0011097,Tune Inn,4.2,restaurant,20003.0
493,washington dc,5741149e94a0006af3690205262cfd53a8e7cc3a,38.886375,-77.001214,Hawk 'n' Dove,3.7,restaurant,20003.0
494,washington dc,162c010ca97087269aac2afdf759e63171a3b87c,38.8866041,-77.00171920000003,We the Pizza,4.3,restaurant,20003.0
495,washington dc,a4701f33d5d77f0cec577cc3a0ee0aaba0f8f11d,38.8895187,-76.9992943,Jimmy T's Place,4.1,restaurant,20003.0
496,washington dc,d036e23030d5ea1de9db51c680c2d559e9a30ef7,38.887207,-77.001522,Young Chow,3.3,restaurant,20003.0
497,washington dc,e75dc007e40233c567a67080da0b59be4bba2926,38.8864097,-77.0012597,Sushi Capitol,4.5,restaurant,20003.0
498,washington dc,ed320ee989c2cbb9a8b62210427940f961a7e752,38.887206,-77.001502,Annie Chen's Sushi Bar & Grill,1.0,restaurant,20003.0
499,washington dc,84ae3d1a332de8d3dcf7e270fda8dcd24df4228f,38.8864566,-77.00139140000002,Stanton & Greene,3.7,restaurant,20003.0
500,washington dc,f64363660d98638a77a50d909c3f3e6e1bca7a76,38.88716220000001,-77.0016308,La Lomita Dos,4.1,restaurant,20003.0
501,washington dc,de2036f7ca57f0ef737274d03aed4b21c20cc33e,38.8866091,-77.0017894,Good Stuff Eatery,4.2,restaurant,20003.0
502,washington dc,f475fa4edbea964de41196f921ed156d9b6b9cc2,38.8866058,-77.001857,Pret A Manger,4.2,restaurant,20003.0
503,washington dc,32db42e2cc2b95c65e42af25154f8f6367bdfd52,38.888238,-76.996852,seventh hill pizza 327 7th street,,restaurant,20003.0
504,washington dc,886f22ee8b3686b05b29a66a8a649bf8b21af4ea,38.8865919,-77.0015467,Santa Rosa Taqueria,4.2,restaurant,20003.0
505,washington dc,53561e9d65f18763de32ff645a363996bf59fa8b,38.8944851,-77.00095859999998,Bistro Cacao,4.6,restaurant,20002.0
506,washington dc,3bfa774d39fcafed3680c85b7346e5a0962a0326,38.894378,-77.00095400000002,Cafe Berlin,4.2,restaurant,20002.0
507,washington dc,8fecddb5f7c6843bdc0f15ed40094efe5114221f,38.8945226,-77.00108440000002,La Loma Mexican Restaurant,3.6,restaurant,20002.0
508,washington dc,00a3c2192abf4bab81595fa7331adfa57a668e89,38.8956444,-76.995173,Kenny's BBQ Smokehouse,3.8,restaurant,20002.0
509,washington dc,457319e513c0e46857752f250833bb8ab9802f17,38.8949435,-77.0011835,Bistro Italiano,4.1,restaurant,20002.0
510,washington dc,3df3d390a7d12c36578e0c5cf96cbeb9074281c2,38.8918446,-77.00039459999998,Garden Cafe,3.0,restaurant,20002.0
511,washington dc,01a02e9f4daa1601f8b6b2a32c4a12ee7b6190c0,38.8999909,-77.00039090000001,Ethiopic Restaurant,4.3,restaurant,20002.0
512,washington dc,c6deb0e4e0078d858f6cb4eff1dcf81c7dead03d,38.90006470000001,-76.99976550000002,The Big Board,4.2,restaurant,20002.0
513,washington dc,2acf04afa442e0414ea4dff71f947ca6ff6653b5,38.9004319,-77.00025720000002,Khepra's Raw Food Juice Bar,4.4,restaurant,20002.0
514,washington dc,097de7e9f6ee59f8060e5a8166c0a06263fcfc37,38.9000228,-76.99990240000002,Sidamo Coffee & Tea,4.5,restaurant,20002.0
515,washington dc,939534e2de9c88888525c2740fa6bde91dd91381,38.9004222,-76.9992412,Le Grenier,4.6,restaurant,20002.0
516,washington dc,5fd79687f7d18b0343ba1b24a67042bc71bd2539,38.9003779,-76.9954629,Major's Carry Out,3.3,restaurant,20002.0
517,washington dc,80f07abb4a2aec56066246ce164a70a712bc6355,38.9003966,-76.9953936,Crown Fried Chicken,4.0,restaurant,20002.0
518,washington dc,4dd3a0f3806d1e37cf6e59588db2b47a420579d6,38.9003833,-76.9966422,Hikari Sushi & Sake Bar,4.2,restaurant,20002.0
519,washington dc,c95b33a7976769d2430079115f181ce6e6531970,38.8999722,-76.9957172,Po Boy Jim,4.2,restaurant,20002.0
520,washington dc,f0470171b41f925c0750ab70af8584ea568ae5d7,38.899924,-76.99597,Fresca Taqueria & Rosticeria,3.8,restaurant,20002.0
521,washington dc,6d3ccbe96790ebc391fc8995b700063b6a0be3ef,38.8999938,-76.99578659999997,Addis Ethiopian Restaurant,4.4,restaurant,20002.0
522,washington dc,b021988829da244a962005c8c0a11ccf71a9ac1d,38.900012,-76.997206,Farmbird,4.9,restaurant,20002.0
523,washington dc,1351aed225795801962ac4fe51e45744d766f61a,38.90005479999999,-77.0000853,Nando's PERi-PERi,4.3,restaurant,20002.0
524,washington dc,9a729c341cb682aa7f03f671febe5df56ab413f1,38.9000048,-77.00030759999999,Uni Bistro,4.6,restaurant,20002.0
525,washington dc,0339c47c7ba482430e51ea7f91bfbeedc60ecbe0,38.900336,-77.00014200000003,Fare Well,4.1,restaurant,20002.0
526,washington dc,bd06b349d7163ef62ab14c6600b24ea4834263c6,38.9003632,-77.0003932,Driftwood Kitchen,3.8,restaurant,20002.0
527,washington dc,ae0f7e0b3cfee00008e8b5c445427a34708a8b76,38.9005105,-76.9975298,Paper Horse,,restaurant,20002.0
528,washington dc,049e8cc358efff3c1e4472e7f4cadf47729a1c58,38.9000014,-76.9988055,DC Harvest,4.3,restaurant,20002.0
529,washington dc,a046e1a3ec614330a36df428b9503956e7608884,38.9004407,-76.9998772,Bar Elena,,restaurant,20002.0
530,washington dc,2c532c2777b2538c0a9a0ddc3f5d4e58f822747c,38.907179,-76.99791090000002,SUBWAYå¨Restaurants,3.3,restaurant,20002.0
531,washington dc,5f4d7cebe6776df47408fefe05db8e3776633920,38.9070348,-76.9983797,A. Litteri,4.8,restaurant,20002.0
532,washington dc,1cc1c662c8b541b3ebcf3e94388c7e6751a78c0f,38.9084179,-76.9971623,TaKorean | Union Market,4.0,restaurant,20002.0
533,washington dc,bae876a8b4c555c31383fc7a88a4e1d3dcbfc8ee,38.9085487,-76.9973277,DC Empanadas,4.2,restaurant,20002.0
534,washington dc,650823e272a36bbaa42ee050ffe94e0e4fbac7f3,38.90864129999999,-76.9973177,Red Apron,3.7,restaurant,20002.0
535,washington dc,c28ae8d8eb2ca5c3b12b49012f58c883b328c46d,38.908438,-76.997008,The District Fishwife,4.2,restaurant,20002.0
536,washington dc,482603970e3e524c6976a516ab21bb97c752a0ef,38.9085034,-76.9971514,Soup Up,5.0,restaurant,20002.0
537,washington dc,454220dc7a8a8d5b9af47330c8fffe976e9ec009,38.908491,-76.9973708,Rappahannock Oyster Bar,4.6,restaurant,20002.0
538,washington dc,a049e9f018c437d27f49b21b48158d057a5ea193,38.9085126,-76.9974557,Saison Wafel Bar,5.0,restaurant,20002.0
539,washington dc,560a8df60deba560400ffb9ff0d05e8dd6f57f03,38.908621,-76.9973915,Craft Kombucha,5.0,restaurant,20002.0
540,washington dc,c8de45ab35add3eadab614e536a80167b2ff99bb,38.9086538,-76.99755079999998,Buffalo & Bergen,3.7,restaurant,20002.0
541,washington dc,495f1894e5658ea769feb31e2b1c0cf510f61a8e,38.9052178,-76.9963864,Far East Taco Grille,4.5,restaurant,20002.0
542,washington dc,e3df9dac5610615d4922e1463206b0c1a0d62f12,38.907064,-76.999564,Good Danny's Carry Out,,restaurant,20002.0
543,washington dc,2bbc1ec9b1c357707a75bb7c6db768e0c20ebd36,38.908387,-76.997167,Neopol Savory Smokery,4.8,restaurant,20002.0
544,washington dc,63a4ee4a9df92bc7d944177b75512b774f8736dd,38.9084006,-76.9971289,DC Mediterranean Corner,3.2,restaurant,20002.0
545,washington dc,9252deeb6703b5aee33e8f6c337c36ddb306c0ec,38.9076561,-76.9990791,Metro Carryout,,restaurant,20002.0
546,washington dc,696514ea470a9340c6198dd0f2867905e71bf84c,38.9084578,-76.99712209999998,Gorsha,,restaurant,20002.0
547,washington dc,761bc90b5a57855065de5802dd2f34e8626f15ea,38.90848,-76.997163,DC Dosa,4.3,restaurant,20002.0
548,washington dc,9fb8d33c05d347570b8494302f12fd68435a66e1,38.9086076,-76.9973873,Puddin',4.7,restaurant,20002.0
549,washington dc,c1a2e4e8e0fec203617e51c1f49d815dedcb10ec,38.9086343,-76.99741540000002,The Union BBQ,,restaurant,20002.0
550,washington dc,0168d329ef5da54e62d32a2456e2952d7c49f448,38.908624,-76.9975193,Arepa Zone,4.5,restaurant,20002.0
551,washington dc,cdd6d240b2d2bb97fa42b702e3703a9082e4708e,38.9090014,-76.9987059,JMP Cafeteria,,restaurant,20002.0
552,washington dc,5fde8b3e16d58d66962b809a6bfb8ca4a16754cb,38.9086715,-76.9977927,Bidwell,4.2,restaurant,20002.0
553,washington dc,608e792420650ae563b0baa1d78fe64552198a38,38.9086559,-76.9979623,Union Market,4.5,restaurant,20002.0
554,washington dc,2d8e2cd57b5669a07d7a0adf9049a8d9c143a96c,38.9086664,-76.9979675,Gorsha Ethiopian Eatery,4.0,restaurant,20002.0
555,washington dc,9eafed4e26b87a7cac09b2ee63687406d03073fb,38.909568,-76.999241,Masseria,4.4,restaurant,20002.0
556,washington dc,9ec2cc5a2a9ffff5fd97fe556443edf579057dda,38.9090305,-77.0009298,Carniceria use beef,,restaurant,20002.0
557,washington dc,9ec0a223bda7a625a49436dec8500b4c247b2fda,38.9220484,-76.9976797,SUBWAYå¨Restaurants,3.5,restaurant,20002.0
558,washington dc,1adf6657ae1fa0c5d43fccde4bc8d40e7b2c7d01,38.9220539,-76.9976186,Popeyes Louisiana Kitchen,3.6,restaurant,20002.0
559,washington dc,945feec3e95d0c5d5f55bb30252b89cf2fdf06e4,38.920516,-76.999408,McDonald's,3.2,restaurant,20002.0
560,washington dc,693878cb7df340b8b12f33c6c6e3495a58c04bc8,38.9196593,-77.0002801,Fish-King,5.0,restaurant,20002.0
561,washington dc,5e039c5b62b053f5c5420ecada3f0ea7a3eb8645,38.9190316,-77.0002763,Big China,3.9,restaurant,20002.0
562,washington dc,6f39eaa0c4b258451048db1929c4d3f749ab4506,38.91960200000001,-76.99998790000002,Rhode Island Express,4.2,restaurant,20002.0
563,washington dc,ea068e5949f6f74576dc37ba67720d602ccc00c5,38.9207387,-77.0007372,Huacatay Restaurant,4.6,restaurant,20002.0
564,washington dc,6989b3de2b18a510356220d840ed734f569f7ddb,38.9211171,-76.9968317,DC Dives,,restaurant,20002.0
565,washington dc,68acedbacd06aca620cf13cc8215f5b62f13fe85,38.91961120000001,-77.00017170000002,Restaurant huacatay edgar,5.0,restaurant,20002.0
566,washington dc,9cb68746ff1ab449b128cb0335e6a64db5cb91eb,38.9250734,-76.99582559999997,solÌ© ago,,restaurant,20002.0
567,washington dc,7d7595faa67445550b7f2c474408d9f296239966,38.925339,-76.995962,S & G Seafood House,4.2,restaurant,20017.0
568,washington dc,1ff03cbb392005869a41a3aac36c0a776f3ff04f,38.93215120000001,-76.9964522,Chipotle,2.9,restaurant,20017.0
569,washington dc,92909841a55a9407a7892ec51926c8a2171ae004,38.9325435,-76.99636600000002,Potbelly Sandwich Shop,4.2,restaurant,20017.0
570,washington dc,cbd1aba53e4f6419fcef81760060ffa8c94387b3,38.9325852,-76.9966963,&pizza,4.4,restaurant,20017.0
571,washington dc,3b85d409921b0f204160a5ae437ec32278b6bd81,38.9352319,-76.99808370000002,Chick-fil-A,3.6,restaurant,20064.0
572,washington dc,818cc62127e0c38a415911d7d5c2e0265523bca5,38.9325049,-76.9951406,Brookland Pint,4.2,restaurant,20017.0
573,washington dc,7f0ff3938c5e7f88e58cf2a528ea441c603af603,38.9330555,-76.99516740000001,Fox Loves Taco,,restaurant,20017.0
574,washington dc,979207603beb0257eab1522b4130839abe45ff21,38.941312,-77.000881,Hunan Delight,3.4,restaurant,20017.0
575,washington dc,2ad087cba3f01870d3da71080a4d2aed21f10bec,38.9410631,-77.0007893,SUBWAYå¨Restaurants,3.1,restaurant,20017.0
576,washington dc,1bbc5060ba4bac2f8b4fc662eb8798a42362ace1,38.95836370000001,-77.0009182,Hunan Shrimp Boat,3.4,restaurant,20011.0
577,washington dc,27766eff09c14de8cafdafdb52d719e2b6a18ec0,38.9587286,-77.0013585,Five Guys,4.5,restaurant,20011.0
578,washington dc,2491afff4bc67bf633f5f7f2d5cac6b93a66d881,38.9586739,-77.00163570000002,SUBWAYå¨Restaurants,3.1,restaurant,20011.0
579,washington dc,82398f3578c04ad0e14183e28f163850c79d59c2,38.9587429,-77.00144449999998,Five Guys,,restaurant,20011.0
580,washington dc,e15f84749b41e968323f5b4653ea75262524de24,38.96654470000001,-77.0010816,Caribbean Garden,3.8,restaurant,20783.0
581,washington dc,a3d428b7763ed1933b8af00db89c848f521ac54f,38.9687133,-76.9991663,Wah Lock Chinese Restaurant,3.2,restaurant,20783.0
582,washington dc,3f7e5b06ef13a2e3bdfe846e00795926396151c5,38.9693928,-77.00069599999998,Mid Atlantic Seafood,4.5,restaurant,20912.0
583,washington dc,ffc07b0b5548681261e6f8d32bf63efece1c8385,38.9737244,-76.99542679999998,Wendy's,3.6,restaurant,20912.0
584,washington dc,acce8e23120e22ce708b617e7c6dbbc3af094ea6,38.9730641,-76.99501529999998,Tom's Chinese Kitchen,3.7,restaurant,20912.0
585,washington dc,5a6540c86fd97834600a891a570de67a9780dbcf,38.9689563,-76.99918570000001,El Paraiso Restaurant,4.0,restaurant,20783.0
586,washington dc,f0618f3f6ea9c6a1c09008e879c91ad6f8c027ce,38.9740404,-76.9954858,Sakura Teriyaki,3.9,restaurant,20912.0
587,washington dc,966a3f8920eb7311fa4b57e6b388a06812207554,38.9731975,-76.9952267,Sakura Teriyaki,3.5,restaurant,20912.0
588,washington dc,434846df0c6758125da0a27051874a61ffa73d02,38.97471270000001,-76.995538,Los Pollos Restaurant,3.0,restaurant,20912.0
589,washington dc,376ee8820b1421b70241d3e0f1da07b5cf4980e0,38.9748427,-76.9954785,Walya Restaurant,4.3,restaurant,20912.0
590,washington dc,64c32758658f6204f44a03ecc267b7ee584f6f1c,38.97455,-76.995766,La Fonda Chiquita Cafe,3.7,restaurant,20912.0
591,washington dc,794a5d7ec6643546b2e1e4848478f632b51940fe,38.973094,-76.9951142,La Cuscatleca Restaurant,3.3,restaurant,20912.0
592,washington dc,98b9a61faa32871e48bee32fbf4fc4d264b6068c,38.9730219,-76.9950985,China House,4.0,restaurant,20912.0
593,washington dc,4dd1c40a3ff627340e796d5e88a17bc7b5b1a842,38.9744576,-76.99574179999998,Come To Africa Restaurant,2.2,restaurant,20912.0
594,washington dc,be0a818082d8655d177ed28de991759bab7ed9af,38.97471270000001,-76.995538,New Hampshire Deli,,restaurant,20912.0
595,washington dc,d637ab637f751373cbc8aa02387925311386031c,38.873331,-77.00639,Shake Shack,4.2,restaurant,20003.0
596,washington dc,756f033266957fdfb96d194c7f7e1a6c9a864e35,38.8732684,-77.0017124,Agua 301 Restaurant,3.7,restaurant,20376.0
597,washington dc,7cc99b6faaf284114d251c0e6ffc3584c74cede2,38.8732841,-77.0015542,Whaley's,4.3,restaurant,20376.0
598,washington dc,3c147976063fdcfc97719d3b8517ce0fe97351d9,38.8734522,-77.0015542,Osteria Morini,4.2,restaurant,20376.0
599,washington dc,86b36636ea7fe55332dd7d654ea2863fe614f245,38.8736124,-77.00168620000002,Due South,4.1,restaurant,20376.0
600,washington dc,52d4b86f36b42b6182e960a54e961557751a355c,38.8739688,-77.0017452,Kruba Thai and Sushi,3.8,restaurant,20376.0
601,washington dc,066f8a559ffc406ab800fbedfdcd3d57c6cf6bde,38.8713065,-77.00630059999997,The Salt Line,4.5,restaurant,20003.0
602,washington dc,1bac138453f93839f58c7f3a96ec75e7b01e4682,38.8714981,-77.0070382,Park Me,,restaurant,20003.0
603,washington dc,20704a957ea171804b64b93d224a44aa482c4ba8,38.8702381,-77.0075401,Bardo Brewing,4.1,restaurant,20003.0
604,washington dc,8f5bca7863c6ef8de2f7456d9b64df118683313e,38.8758635,-77.0030689,Snack Bar,,restaurant,20003.0
605,washington dc,6387ad7ded68309f5b8c6b0be188793f5e303354,38.8778563,-77.0061581,Justin's Cafe,4.1,restaurant,20003.0
606,washington dc,64f47314a8df42a1cd07732fc4d05912ab338acd,38.8771923,-77.0036811,Five Guys,4.2,restaurant,20003.0
607,washington dc,6906abccf963720a66c9a84fe3669a702e3ec047,38.876765,-77.005579,Gordon Biersch,3.8,restaurant,20003.0
608,washington dc,54198d5a0706f7135c524ef3d51c70c00a3693bf,38.8768225,-77.00322609999998,Il Parco Restaurant,3.6,restaurant,20003.0
609,washington dc,2b4f110528c9027e3726524f7c143b614333fe92,38.8777304,-77.00409640000002,The Bistro ÛÒ Eat. Drink. Connect.å¨,2.0,restaurant,20003.0
610,washington dc,6672792dce4327c2d34e35426fe105d48a368284,38.8751984,-77.00617220000002,Chopt Creative Salad Co.,3.3,restaurant,20003.0
611,washington dc,5497e8bf24271deecadd2ae9d1b701b9a86864c8,38.8766494,-77.0068096,Shake Shack - Navy Yard,4.2,restaurant,20003.0
612,washington dc,73a7f202d8a04a749a19f9efc91ae33b3984f524,38.8766572,-77.0076313,The Big Stick,3.9,restaurant,20003.0
613,washington dc,a70a7ed76d2f360af050d887e90673466bb76b7a,38.8766419,-77.0078345,SUBWAYå¨Restaurants,3.7,restaurant,20003.0
614,washington dc,476f7d28e35cf6580d02eabe016d002e4973161c,38.87824620000001,-77.0077288,Bonchon Navy Yard,4.3,restaurant,20003.0
615,washington dc,f43fbc26e78a2fe81a344c523ec0a7bd3019905a,38.877155,-77.003876,SUBWAYå¨Restaurants,,restaurant,20003.0
616,washington dc,f812a18a2025b36ab97e6037b96db72e92c6d8dd,38.87532570000001,-77.0061752,Roti Modern Mediterranean,5.0,restaurant,20003.0
617,washington dc,1558cd340bc3bf298a0a6fb72f5a899602347920,38.8751976,-77.0061732,CHOPT,,restaurant,20003.0
618,washington dc,5e3137e084ef2d7596ac93457e780c08963634bc,38.878464,-77.005062,Scarlet Oak Restaurant & Bar,4.1,restaurant,20003.0
619,washington dc,9244636b79d69faec3eb422702d828f2a4843041,38.874856,-77.006381,Top of the Yard Rooftop Bar & Bites,4.5,restaurant,20003.0
620,washington dc,a578bbae43700c0c5bf49af4bfb9298cc767bff7,38.8759612,-77.00706009999998,Chix,3.0,restaurant,20003.0
621,washington dc,4bbafe8a7cd311ac271f3e603e0067d0d11940a6,38.8793626,-77.0053347,Slipstream,4.4,restaurant,20003.0
622,washington dc,d78744b77da2d2143ba6bbe08090c398ae2f6007,38.8846515,-77.005514,Bullfeathers,4.0,restaurant,20003.0
623,washington dc,cd7c7145348b7dda94edc08b278533d8c3a3aa9d,38.88489000000001,-77.00552990000001,Tortilla Coast,3.9,restaurant,20003.0
624,washington dc,0c0497624570339582c9944bfa82473a659507a5,38.8847242,-77.00562790000002,SUBWAYå¨Restaurants,2.9,restaurant,20003.0
625,washington dc,c0485633ac6087bf229e76d7a587bb8444bd4395,38.88475,-77.005641,Talay Thai Restaurant,3.2,restaurant,20003.0
626,washington dc,07b687d26d471d1fded67aa77320ed675222b4ed,38.884912,-77.0053347,The Monocle Restaurant,,restaurant,20003.0
627,washington dc,21147150c30ec71ad8846442e4ea5b4a1ab47f23,38.88696820000001,-77.0024832,Capitol Lounge,4.1,restaurant,20003.0
628,washington dc,f392dad447632f74694a0b78863d4144724649da,38.8869787,-77.00266620000002,Sonoma Restaurant and Wine Bar,3.9,restaurant,20003.0
629,washington dc,afd835ecd9eb47161eab2f2154ec8caa72b020a8,38.887044,-77.002902,Hunan Dynasty,3.6,restaurant,20003.0
630,washington dc,7f1402ae98fb36efac7abde746cdc5c33fe4d8c7,38.8871942,-77.00316670000002,Burrito Brothers,4.3,restaurant,20003.0
631,washington dc,ebdbc997449c8ce746b17d98d80382316f4f40b2,38.8870045,-77.00273390000002,sweetgreen,4.6,restaurant,20003.0
632,washington dc,3f2ead54a2a92827ee7b4bb029700bc55b08b272,38.88699,-77.00328499999998,Pete's Diner,3.8,restaurant,20003.0
633,washington dc,cbc9510d5bfbc0f95f6a95e46a4e7255342a45f6,38.8871521,-77.0040542,SUBWAY,4.4,restaurant,20540.0
634,washington dc,35d47c1eafb4f92f2c077413124ff3d3a7f540e1,38.890829,-77.0041263,US Supreme Court Cafeteria,4.5,restaurant,20002.0
635,washington dc,784ef424e22aabc2c20f6e694a10f26f8c05dfc5,38.88713970000001,-77.00304009999998,LetÛªs Mix! BiBiJa!,4.2,restaurant,20003.0
636,washington dc,be8c2d711da6a11637670658152d27f8e536c217,38.8946607,-77.00288379999998,Union Pub,3.9,restaurant,20002.0
637,washington dc,183cdb31ac108c9a4dd1241961947babe2d5a6fd,38.8945799,-77.0051708,The Monocle Restaurant,4.4,restaurant,20002.0
638,washington dc,45ff97115eda931bae99f32fb1948ca0007333c4,38.897462,-77.003276,Toscana Cafe,3.7,restaurant,20002.0
639,washington dc,ead8b5f0760146c89eb5b88dbcf98eaa6918cf55,38.8970964,-77.00567779999999,Thunder Grill,2.5,restaurant,20002.0
640,washington dc,f6dbc79e990312fdea59eb5528e047ea2ad6027e,38.8942423,-77.0018404,Romeo & Juliet Garden Cafe,3.9,restaurant,20002.0
641,washington dc,89d175c123b07e0a70aeb54e33b28c0dfb9d18af,38.8945879,-77.0030402,Kyoto Sushi,4.1,restaurant,20002.0
642,washington dc,c6a4df6782743ba06c602ecbf2bfbad31a240af9,38.89833820000001,-77.00672209999998,Sbarro,3.1,restaurant,20002.0
643,washington dc,4bbef9012a252c9bd9c8f85481683a2455f1463e,38.8977625,-77.00638070000002,Johnny Rockets,2.7,restaurant,20002.0
644,washington dc,9b49d72f920a8310124f9babfc215e107fb3757f,38.8976441,-77.0066237,Uno Pizzeria & Grill,2.5,restaurant,20002.0
645,washington dc,764fa18b000942b80e9d8905e0c7de4ddca8d700,38.897965,-77.00586329999999,Cajun Grill,3.5,restaurant,20002.0
646,washington dc,5ca96807cafc8e83bf95380e63d665d6f474e2bb,38.89787570000001,-77.00543640000002,SUBWAYå¨Restaurants,1.5,restaurant,20002.0
647,washington dc,17d9c9f55a23ce78a5c397811e8ac81d65f6668e,38.8977002,-77.00687950000003,Chipotle Mexican Grill,3.3,restaurant,20002.0
648,washington dc,e4c68f30fc0f217aeb9621ad3bb73119dd302909,38.8980407,-77.0061692,Taco Bell,3.3,restaurant,20002.0
649,washington dc,31f9db6920619f085962373ef22009406abd439f,38.8979975,-77.004349,Station Express,,restaurant,20002.0
650,washington dc,d176e5187aca28abb82919aa244b559594b02560,38.897954,-77.006748,Bojangles' Famous Chicken 'n Biscuits,3.5,restaurant,20002.0
651,washington dc,ba598598d2230e686e221521032068b64ed0d59b,38.897574,-77.00564,East Street Cafe,4.1,restaurant,20002.0
652,washington dc,489c381c67385e995103b74a11324122cdc9a918,38.8977579,-77.00669570000002,Chop't,3.8,restaurant,20002.0
653,washington dc,9dcb0ef0de9c962b94b7bea31beed2b997a829de,38.9027852,-77.00229379999998,Timothy Dean Burger,4.0,restaurant,20002.0
654,washington dc,d931aee896ec633273d1bc46c87174a992513679,38.8975799,-77.0061578,Treat Street,,restaurant,20002.0
655,washington dc,652806d8eb798b54f041bbf14e711dbdbadbcba7,38.8976717,-77.00674620000002,Potbelly Sandwich Shop,3.9,restaurant,20002.0
656,washington dc,8ce130e75cfff11659fbfd46272c0263707b8fe2,38.8978363,-77.0058319,Jamba Juice,2.9,restaurant,20002.0
657,washington dc,d6ba7dfb875f8dc98bb439fd151a7307eb3fec56,38.89786220000001,-77.0050655,McDonald's,2.8,restaurant,20002.0
658,washington dc,3d7d77cb6bfaf77738567dd4dc34b164fb4414fd,38.898114,-77.0066507,Au Bon Pain,3.3,restaurant,20002.0
659,washington dc,fff844cd30d42c9a22c56953c954ec3f7f14607c,38.8983445,-77.0068198,Pret A Manger,3.9,restaurant,20002.0
660,washington dc,65e406162d27d77f3741634d63723c6043d95e4a,38.9022603,-77.0022302,Indigo,4.6,restaurant,20002.0
661,washington dc,310a7aae250eff038fbc3b31adf94d59e399e857,38.897979,-77.00596999999998,Charleys Philly Steaks,5.0,restaurant,20002.0
662,washington dc,4dca07121be65e9f4a4bbd5dbc4fbff87dc4c3cf,38.8976352,-77.00614329999998,Crepe Lena,4.0,restaurant,20002.0
663,washington dc,96aa10f09a02a6f60772352fa8d829306a608ec1,38.89741,-77.006731,Shake Shack - Union Station,3.8,restaurant,20002.0
664,washington dc,a10162f7eb19b7173e6195599c7aec9f705ae86c,38.897462,-77.006884,Roti Modern Mediterranean,3.5,restaurant,20002.0
665,washington dc,ba74641b28dba5b87dcf3ec02feae0af41df9268,38.8994874,-77.0039463,The Healthy Bean,,restaurant,20002.0
666,washington dc,a637249f70576b4c77e1df73424c534ca579d8a5,38.8972244,-77.0057252,Mamma Ilardo's,,restaurant,20002.0
667,washington dc,4ca83c9d52ba594277d6f3caed1a68a5119c879c,38.89760089999999,-77.0059602,China Kitchen,,restaurant,20002.0
668,washington dc,4cf9218d28234dda9f32f82078d958bac8f093e9,38.8975799,-77.0061578,Capitol Kabob,1.0,restaurant,20002.0
669,washington dc,709f0a92c01a7769bec7d3f77693857448f9f00d,38.8991227,-77.0081512,Travers Enterprise Catering LLC,,restaurant,20002.0
670,washington dc,1e9b85acfe56c0e6f6d909a778ee5f619c1ad086,38.902049700000006,-77.0063775,Sandwiches by Phillip,5.0,restaurant,20002.0
671,washington dc,ac43d8cb0c14321c61bd914f9536223026d9f2f7,38.9015461,-77.007041,Sunrise Cafe,3.2,restaurant,20002.0
672,washington dc,ad923dfe6d131cec37095fef7dd3e49f03c528d9,38.9002031,-77.00831190000002,Rkn,,restaurant,20002.0
673,washington dc,e96598f13c569d514e175c18b1e5ce9dc6d234ee,38.9070697,-77.0047683,Constitution Cafe,3.6,restaurant,20002.0
674,washington dc,1137cb9f29cb21e936863aea4581994ed1439b14,38.906574,-77.005674,Roti Modern Mediterranean,4.2,restaurant,20002.0
675,washington dc,e5a837704745b6a82ff606f934aeb67bcf7e9ece,38.9064416,-77.00568100000002,Potbelly Sandwich Shop,3.5,restaurant,20002.0
676,washington dc,9a6f9aee028c704881b0582650deeac0d7bef4fc,38.9083368,-77.00373359999998,Five Guys,4.3,restaurant,20002.0
677,washington dc,fad877e37bae94bf003ebd3d7871f9a4bb523f07,38.9075805,-77.00332,Au Bon Pain,4.0,restaurant,20002.0
678,washington dc,f32511a1768210c53c1388ebb8a4df9e2b56e5e8,38.9079029,-77.00368259999998,The Perfect Pita,4.0,restaurant,20002.0
679,washington dc,d06a24a34fffa27125ce26246fdd9a5b7139fd23,38.9068013,-77.00459920000002,Seoul Spice,4.0,restaurant,20002.0
680,washington dc,f941231525f1ce4a7c2fa4301f640144e6d2ddfc,38.908139,-77.00366600000002,a Deli DC,4.0,restaurant,20002.0
681,washington dc,d31c722fb91c79a6cc2ce5e5d274216adf81465c,38.9070814,-77.0053946,Moe's Southwest Grill,3.8,restaurant,20002.0
682,washington dc,edb5a48c7bcbcf0499f223b3510723da33e38aa6,38.9040998,-77.0029682,Supreme Delights,,restaurant,20002.0
683,washington dc,a43883c53b438f68a560e3cc5b657c36bca6711e,38.9028819,-77.0060734,Subway,,restaurant,20002.0
684,washington dc,51e45cf8ae7c0ebf58eda37da4ef1d41fd33d630,38.904005,-77.0066338,West Wing Cafe,4.1,restaurant,20002.0
685,washington dc,b445f05252b11617e8ac4e6f74405849008796dc,38.90890039999999,-77.0054209,Wendy's,3.4,restaurant,20002.0
686,washington dc,c69761812f85733e7e71c8a0ed631813911ecd11,38.907985,-77.0063021,McDonald's,3.0,restaurant,20002.0
687,washington dc,5baf4bb64f28472d3a39d4c6219bb0fae096a4b7,38.911756,-77.003557,Delta Produce,5.0,restaurant,20002.0
688,washington dc,407a555efb8dd268665a3eb27176cef2cd5dd55b,38.9097817,-77.0088286,Full Yum Carry Out,4.2,restaurant,20002.0
689,washington dc,c7f7d9b77b7655c655683c750b36eaa688bfbfe8,38.929606,-77.004234,Trinity Deli,4.1,restaurant,20017.0
690,washington dc,a711a176254839fec756b51fc394b13511c44c86,38.9297091,-77.0043405,City Kabob & Curry House -2 (D.C),4.2,restaurant,20017.0
691,washington dc,c0be3b87638714c3e2438b6305e52e6f4c782158,38.942363,-77.005073,Greensboro N.C.,,restaurant,20011.0
692,washington dc,eef55e048f0e61cd62abef1f0431a81c144f5d80,38.9568539,-77.0027533,KFC,3.2,restaurant,20011.0
693,washington dc,656125370af0dfebe4dff7e87c3cb49c7bdd74da,38.9568731,-77.0027552,Taco Bell,2.2,restaurant,20011.0
694,washington dc,062303149ea0c5dc9ceccea0f75bbcc8ed4ad8bf,38.9564543,-77.0032479,Rex Carry out,3.6,restaurant,20011.0
695,washington dc,561ac6e4a544652948d451a40a50ee69b848dd0d,38.9658125,-77.0019104,McDonald's,3.5,restaurant,20783.0
696,washington dc,ed3e7f7928077dee2c7d61cd1290b462054d83b8,38.9668641,-77.00194520000002,Popeyes Louisiana Kitchen,3.5,restaurant,20912.0
697,washington dc,ef783dfda4f6bec836c55727c6caf7d2c3637ba5,38.98262329999999,-77.0071025,Peter's Sub Shop,4.4,restaurant,20912.0
698,washington dc,4a371c08b83efe83b767d5b5447f9677803b0e12,38.8559688,-77.0100863,Furnari Restaurant,,restaurant,20032.0
699,washington dc,b104ec8a23a175e6060c227825c48f358ea56b43,38.8709873,-77.0118495,Swaad Palace,4.2,restaurant,20024.0
700,washington dc,d6b0122666bb082d0a45bc6a4ccc217349fe125f,38.874924,-77.009438,Leo's Eatery,4.4,restaurant,20024.0
701,washington dc,b16ecd1ecdd19b3cd6383b7f5c884d6bd53dd4e9,38.876018,-77.009462,Grand China Carryout,3.3,restaurant,20024.0
702,washington dc,38d5852bb0379a322e8416923a58664ad3494f0b,38.87900120000001,-77.009748,19th Green Restaurant,,restaurant,20024.0
703,washington dc,66aa4b17854064782100191d9a42dce13ede0ce4,38.87900120000001,-77.009748,Lapidus Restaurant,1.0,restaurant,20024.0
704,washington dc,91ac125f1121df858836717b296f23c607d9d8e1,38.8896646,-77.009109,U.S. Capitol Restaurant,4.0,restaurant,20002.0
705,washington dc,af2c673fc9c8efb97f7e55b66cd332de59d91e6a,38.8871842,-77.0105536,Subway,4.5,restaurant,20024.0
706,washington dc,b942f59224b2f8c4bb7425d3d1e5471408517f37,38.8866329,-77.0144096,Humphrey Cafe,,restaurant,20024.0
707,washington dc,6aca471f424400a8de6a34baf362f2f829c0c019,38.8930057,-77.01245959999999,Charlie Palmer Steak,4.3,restaurant,20001.0
708,washington dc,3944e74d21dfce27e2c99c4dd1fdadd88097a031,38.8952472,-77.0107551,Art and Soul,3.6,restaurant,20001.0
709,washington dc,fab790af568d15465a74960aa0767c1e7ae71a69,38.8962874,-77.0098218,Bistro Bis,4.3,restaurant,20001.0
710,washington dc,d620e893c382fb08f33ec8eb35e0a945e0a0db25,38.897078,-77.009485,The Dubliner Restaurant,4.1,restaurant,20001.0
711,washington dc,25c3552708befe5e750809fb0bfcd1ca84b1494f,38.89664000000001,-77.011904,Billy Goat Tavern,3.9,restaurant,20001.0
712,washington dc,43736e7a955be289b5fb0079b86a2c0e24d4fa5d,38.897055,-77.00979699999998,Kelly's Irish Times,3.9,restaurant,20001.0
713,washington dc,0313b9c1f72364f3042333a05f793432fe74b99b,38.8933108,-77.0133963,Hamilton's Bar & Grill,3.8,restaurant,20001.0
714,washington dc,909170dd437eef3bdaa8996420fd243e42e97ba2,38.896755,-77.0109698,Bistro 525,1.5,restaurant,20001.0
715,washington dc,b31523bdb105eb110cae0fcad3b4510a819e1018,38.8945268,-77.0116344,West Wing Cafe,4.3,restaurant,20001.0
716,washington dc,3c859fc5037d3e730c0b2225b124c0b8362941d9,38.8932677,-77.0133997,Momoyama,4.1,restaurant,20001.0
717,washington dc,4f19c8c35a41ee8c539dc684dc8d4d8625fd9f45,38.895217,-77.011459,Article One American Grill,3.5,restaurant,20001.0
718,washington dc,99e2a234b360726505233954f029a9a4a3cec32b,38.89292,-77.01433540000002,Fame Food Management Inc,3.0,restaurant,20001.0
719,washington dc,e391ef087a80171055719fa6c59a645111d49079,38.89707,-77.01073509999998,Quiznos,3.5,restaurant,20001.0
720,washington dc,23072b1bbae3b0be88e760defb08a2e43f354853,38.8933976,-77.013458,The Alibi,4.5,restaurant,20001.0
721,washington dc,9cb0ad6d110d8e592ee188b877834c3419d6056c,38.8962873,-77.00982040000002,bistro Bis,,restaurant,20001.0
722,washington dc,58de9de4378d4c9b71a4de1e8866216a2f006618,38.89687650000001,-77.01245909999999,Subway,4.8,restaurant,20001.0
723,washington dc,8dc58fb2822854320d6174b8d586d3ab8dc887c8,38.89562,-77.012351,Sandwiches by Phillipã¢,4.4,restaurant,20001.0
724,washington dc,69df0cbcaae3dc48d32a3bee30747f020498b2f9,38.8935435,-77.0144769,Illinois Watts,,restaurant,20001.0
725,washington dc,7d2c8e48b44cb32bc0cfdfcc7fda8392eb005ad4,38.89706810000001,-77.01078199999998,Embers Grill,3.0,restaurant,20001.0
726,washington dc,658247f4ff935eda0391c5c7101e8c6b9a5fce08,38.9003671,-77.0097094,Subway,2.9,restaurant,20002.0
727,washington dc,4bf384dedfc6add1b2aa97c77e99ad4c45c9921c,38.9004192,-77.0093296,Au Bon Pain,3.7,restaurant,20002.0
728,washington dc,f022987b7b18687739fc136d2ce33636b45c1ed5,38.9003784,-77.01165290000002,District Rico,4.6,restaurant,20002.0
729,washington dc,c660f538bb21d2a58616a6c7b66eb1d6697d8b5d,38.8982719,-77.0101659,ôÉ¯á¯_ôÉ ôãôôã ¯¤¯¬,,restaurant,20001.0
730,washington dc,b27a8533ae5453563aabe6f8c40f9b6c2a0adbea,38.8985884,-77.0111098,Mission Muffins,,restaurant,20001.0
731,washington dc,ba3a441abe784eb4de9b0610af9479ab4d222d86,38.9003399,-77.0113757,Quickway Japanese Hibachi,4.3,restaurant,20002.0
732,washington dc,6492df4ddf86759c5cc83b944024890153203541,38.9020189,-77.00854029999998,Union Square Cafe,5.0,restaurant,20002.0
733,washington dc,b889a6afae0abce511f9067bf2cf12efb962a795,38.90679229999999,-77.00867009999997,Skyline Cafe,,restaurant,20002.0
734,washington dc,a53d9e7ad048df2b13de6dd8c98524cabb9ca0f4,38.9076669,-77.0093762,BIT Deli,5.0,restaurant,20001.0
735,washington dc,1d7a5b44d10564f8caef369af05972298cdec328,38.9035521,-77.0141152,tienda lodaisty,,restaurant,20001.0
736,washington dc,c20ee816bcc0e61917bced69ed650af3d7c05219,38.9058203,-77.0140677,Andy's Carry Out,4.4,restaurant,20001.0
737,washington dc,519d2a716e8bee1a49549faf53cc7629b33a9aa0,38.9108954,-77.008691,New York Pizza,3.0,restaurant,20002.0
738,washington dc,e273695f7806c1d7269c01540d3096acf980e759,38.912749,-77.008717,Yeung Fong Carryout,3.2,restaurant,20002.0
739,washington dc,f5b0937090b59980d4f2198da5c510b263c2aefc,38.9120283,-77.00945159999998,Old Engine 12,4.2,restaurant,20001.0
740,washington dc,67af62f50e5405b2e639c8856c110cb67be24ad3,38.9135274,-77.0092982,Jam Doung Style Cuisine,4.1,restaurant,20001.0
741,washington dc,188a16f71698c8a1b1903703aa1698af4c64d12f,38.912363,-77.00930799999998,The Pub & The People,4.5,restaurant,20001.0
742,washington dc,dbea31b5cf038ba62706c6b152172023ef7daf26,38.9150119,-77.0124088,Red Hen,4.6,restaurant,20001.0
743,washington dc,abc7c0d6d1f5fcea4661f2fcc9c1a04fca4a51e2,38.9152449,-77.01267940000002,Boundary Stone,4.5,restaurant,20001.0
744,washington dc,5f1818734269f0c51d5c086502a53ecd3693cdee,38.91496400000001,-77.011687,Bacio Pizzeria,4.6,restaurant,20001.0
745,washington dc,31155a2cc042c99c47094bf948c87ac410d8ea0e,38.913227,-77.01437370000002,DCity Smokehouse,4.2,restaurant,20001.0
746,washington dc,ea4270259d7d0061e0210c1ff505e8ba5c1a9941,38.9152755,-77.0124179,Aroi,4.2,restaurant,20001.0
747,washington dc,0a263ff3ea62e824e31496cb96de0ecf3c3e3997,38.915362,-77.01189690000002,Crisp Kitchen + Bar,3.8,restaurant,20001.0
748,washington dc,37a9ff61fb49c4284d381f60dd9647116a9f3287,38.9158489,-77.01240849999998,Chinese Dragon,3.4,restaurant,20001.0
749,washington dc,c770cd138a2cd28ac016f80e5a78be0a21fc478d,38.91543,-77.01191329999997,Tyber Creek Wine Bar & Kitchen,4.3,restaurant,20001.0
750,washington dc,765f5d59ea0156321543799154a5acaac21e2b13,38.915338,-77.012677,El Camino,4.1,restaurant,20001.0
751,washington dc,57ecf0df8635cd507ddec00b8c53638deae7a053,38.913281,-77.015405,ANXO Cidery & Pintxos Bar,4.2,restaurant,20001.0
752,washington dc,c9f81391afa57109010662de0fe5a38ead4230b9,38.9420323,-77.0137962,Hitching Post Restaurant,4.2,restaurant,20011.0
753,washington dc,5373fc61d17f5235499c93c1b0e960a25cf75857,38.9424065,-77.0138855,Slash Run,4.4,restaurant,20011.0
754,washington dc,ee74ba7043949590eacf940693aa032d24a9b171,38.9563816,-77.01251040000002,Jackie Lee's Uptown Lounge,,restaurant,20011.0
755,washington dc,2b4bc356a5d90e2722839c036a96af2e7920b4f7,38.9679778,-77.012294,The Class Deli,4.0,restaurant,20011.0
756,washington dc,008acaaa20c53faa2707d6ae9fb5e72ea9884224,38.973832,-77.012569,Pizza Movers,3.4,restaurant,20912.0
757,washington dc,1b21105a0246a5ab8109a8986c06e5a69f350012,38.9746063,-77.0119412,Republic,4.4,restaurant,20912.0
758,washington dc,9c28774e8f9b000f1b28ea687a8be5eefecb155c,38.9742471,-77.0121822,Kin Da,4.4,restaurant,20912.0
759,washington dc,ac64c2d5795b746e9d4229b2eb905cf5ab25f34e,38.9748762,-77.0120975,Mark's Kitchen,4.4,restaurant,20912.0
760,washington dc,4948a2ae67bf77fc2cfb1f23ddf2dc5e0d3ab620,38.97526720000001,-77.0105078,SUBWAYå¨Restaurants,3.2,restaurant,20912.0
761,washington dc,07d315b6b6c9041642196394c99598baa12568f1,38.9752435,-77.0111975,Roscoe's Pizzeria,4.2,restaurant,20912.0
762,washington dc,eb1ee6f0ce4850eaecb850804e1cabd08240c2f2,38.974917700000006,-77.0120496,Middle Eastern Cuisine,4.3,restaurant,20912.0
763,washington dc,d5d4e69931b17b600cd93d536ad7e66b2c0821ff,38.9747855,-77.0124902,Trattoria da Lina,4.4,restaurant,20912.0
764,washington dc,f8fd1c289362ab1eda02916524ee884ac303896c,38.9750709,-77.0151391,Busboys and Poets,4.3,restaurant,20012.0
765,washington dc,c5d206c6164f18fea09201c768801fdf7db6dcf6,38.877536,-77.020721,Arena Stage at the Mead Center for American Theater,4.6,restaurant,20024.0
766,washington dc,29671656c3b0ff3db70b4b9e0938bdeaf0f678b3,38.8775051,-77.02073229999998,Richard's Place,4.0,restaurant,20024.0
767,washington dc,bcb2d4b05c0f38460766295b843f1ee1c3721f3f,38.8774282,-77.0180171,Station 4,3.8,restaurant,20024.0
768,washington dc,247691230297895f3320920446fc18d9e89fa4dc,38.87450850000001,-77.0215067,Spirit of Washington,3.8,restaurant,20024.0
769,washington dc,a54191e9cba1c5ef38d951492a6e8cadd67d415f,38.877873,-77.0178692,Subway,3.6,restaurant,20024.0
770,washington dc,66845884db1b6fd11994fe51962c8df0f9562fc1,38.8756373,-77.02201219999998,Cantina Marina,4.1,restaurant,20024.0
771,washington dc,6f2d6e0b4cd5d9e8c289b3cddb785876c5f2c615,38.8772969,-77.0180993,All About Burger,4.0,restaurant,20024.0
772,washington dc,3edeaf9b66c910d57ccafb7d9f9b670f3044c38f,38.8776828,-77.01803309999998,Masala Art,3.8,restaurant,20024.0
773,washington dc,de48ca97a556f587e9ec80d3f31b21852b439d88,38.87521470000001,-77.02102550000002,Premier Yachts Inc,,restaurant,20024.0
774,washington dc,ffec3e13782b69ea3c6ee05db7f4eb5cc78edd98,38.87521470000001,-77.0210691,Spirit of Mount Vernon,3.6,restaurant,20024.0
775,washington dc,bc7b73f8d09b55f52b68fb23f7ca4e09b4fd6dd6,38.8776475,-77.01721020000002,Wanda,,restaurant,20024.0
776,washington dc,838a85f7dfc1b597c8416c9df8d15c9355f3ab08,38.8770973,-77.0218451,King Ribs,4.6,restaurant,20024.0
777,washington dc,10e2c4782f91276f4753d94eca551dc63a6c9837,38.8841014,-77.0195192,Subway,3.9,restaurant,20024.0
778,washington dc,b178322582bc325856d241ce4bec6921a41ba394,38.8847284,-77.0154835,Potbelly Sandwich Shop,4.2,restaurant,20024.0
779,washington dc,c8b4753a08b61ef7c783813368779358ef1fc685,38.884242,-77.018227,Atrium Cafe,4.3,restaurant,20024.0
780,washington dc,9f0f732ae76d01bca62c740e265421fb65bd02bd,38.8857482,-77.0181633,Wall Street Deli,4.2,restaurant,20024.0
781,washington dc,af7503159bc7d80e8eb8e46df6ab10d301b66395,38.8833809,-77.0152968,Sandwiches by Phillip,4.1,restaurant,20024.0
782,washington dc,4bf7892d5aedce7a81c8c02ecc06fd56a4259937,38.885898,-77.01800899999998,McDonald's,3.6,restaurant,20024.0
783,washington dc,0d5a79dada4f95f6fa8c167c8100a3195f74a2ad,38.883433,-77.01561099999998,Pizza Autentica,3.4,restaurant,20024.0
784,washington dc,1f3637b6b4033165f855c656731e66105844ce06,38.8848186,-77.01572759999998,Rice Bar,4.4,restaurant,20024.0
785,washington dc,54250fba0c745866c2019995939426f88ca22155,38.8857936,-77.01846640000002,Quiznos,3.8,restaurant,20024.0
786,washington dc,39eff05eab4f7fab381cc65a4f3651c9f618fb93,38.8855988,-77.0196779,Capitol Bistro,3.8,restaurant,20024.0
787,washington dc,3ba1e8f1b0b4f50950b8f95671bedfb0d2255780,38.88361370000001,-77.0155401,Foxhall Enterprises,,restaurant,20024.0
788,washington dc,cf918410fa7ffa967e8f2de14d9b6cb9051a0dd3,38.8829247,-77.0190187,Global Carryout Shop,4.0,restaurant,20024.0
789,washington dc,f4098aa87adffe70cdb4dfdb7c7a222a7ef34bee,38.8859391,-77.0181116,Sal's Cafe,2.8,restaurant,20024.0
790,washington dc,7d0a32594bba6a1667cb4bbb9ff453ffdf4f95b4,38.8855988,-77.0196779,21st Amendment Bar & Grill,3.2,restaurant,20024.0
791,washington dc,db9a1e3c7295bfcaa35b2cd00733ce648d2a6fe1,38.8883394,-77.0169768,Mitsitam Native Foods CafÌ©,3.6,restaurant,20024.0
792,washington dc,7a1a02dab6bfeb5275354adfc4660ac061524831,38.88600020000001,-77.02119,Vie de France,3.1,restaurant,20024.0
793,washington dc,74e0a3985c59b58fef2dd067746e9c54baa8eb6e,38.8851265,-77.02164559999999,Pizza Autentica,2.8,restaurant,20024.0
794,washington dc,a466133e02ea6be0c0aabf1f2868fc0532989c7d,38.8881688,-77.01833590000003,McDonald's,3.3,restaurant,20024.0
795,washington dc,7b78d3ebc9c61bd7593579296b67bd8a32b4224a,38.8859675,-77.0211747,Cosmo Cafe,3.1,restaurant,20024.0
796,washington dc,35bb66eae4d1021838f467dcdcd10506dd9af10b,38.8884526,-77.0212817,McDonald's,,restaurant,20024.0
797,washington dc,06e3b175547094848a129de8385397c078335350,38.8887415,-77.0216825,Air and Space Museum Food Kiosk,3.3,restaurant,20024.0
798,washington dc,02dadf6faceb2ada103870c60ce59cc8e8fa7547,38.893162,-77.02019240000001,The Capital Grille,4.5,restaurant,20004.0
799,washington dc,5bd5f21ffb81c6c63ddcd0aa406638e07f5560f3,38.893813,-77.020546,Fiola,4.4,restaurant,20004.0
800,washington dc,1210e1bd2a2607027a0b49f70fc26582bdf0336e,38.8948808,-77.02127809999998,Rasika,4.3,restaurant,20004.0
801,washington dc,0dda8cf1afebfe8dbd0715a6a7fd02ef07a2768b,38.8933908,-77.0196868,The Source by Wolfgang Puck,4.1,restaurant,20001.0
802,washington dc,9eb033bef6174c53f2c5fe8c3c69b35341e312ab,38.8941504,-77.0200473,Cosi,3.7,restaurant,20004.0
803,washington dc,3acfa0f59a8e3c9ab15139a71c639fcab2b032b2,38.8942805,-77.02143840000002,Penn Quarter Sports Tavern,4.1,restaurant,20004.0
